$GPRMC,135710.80,A,5545.2926066,N,04844.4651942,E,0.03,28.97,190718,0.0,E,D*03
$GPGGA,135710.80,5545.2926066,N,04844.4651942,E,2,17,0.6,195.232,M,3.896,M,0.0,*79
$GPGSV,4,1,16,8,35,306,47,10,66,218,49,13,11,28,36,15,33,57,50*4A
$GPGSV,4,2,16,16,10,232,38,20,77,106,45,21,49,114,47,27,59,261,50*72
$GPGSV,4,3,16,32,12,177,39,33,5,248,,36,25,200,42,37,22,211,*4B
$GPGSV,4,4,16,38,5,248,,39,23,208,41,40,26,172,,41,19,140,*46
$GLGSV,3,1,9,66,49,282,,70,34,43,38,71,79,126,48,72,34,205,48*6F
$GLGSV,3,2,9,78,14,322,41,79,17,3,43,85,12,138,43,86,67,144,50*55
$GLGSV,3,3,9,87,48,313,50*6B
$GPGSA,A,3,8,10,13,15,16,20,21,27,32,,,,1.1,0.6,0.8*01
$GLGSA,A,3,70,71,72,78,79,85,86,87,,,,,1.1,0.6,0.8*29
$PNVGBSS,292,292,0,,0.0*7F
$PNVGVER,NVS,RTA,0027,CSM24,P312*50
$GPRMC,135711.00,A,5545.2926071,N,04844.4651939,E,0.03,28.97,190718,0.0,E,D*00
$GPGGA,135711.00,5545.2926071,N,04844.4651939,E,2,17,0.6,195.241,M,3.896,M,0.0,*7E
$GPGSV,4,1,16,8,35,306,46,10,66,218,50,13,11,28,37,15,33,57,49*4A
$GPGSV,4,2,16,16,10,232,38,20,77,106,45,21,49,114,47,27,59,261,50*72
$GPGSV,4,3,16,32,12,177,39,33,5,248,,36,25,200,41,37,22,211,*48
$GPGSV,4,4,16,38,5,248,,39,23,208,42,40,26,172,,41,19,140,*45
$GLGSV,3,1,9,66,49,282,,70,34,43,38,71,79,126,48,72,34,205,48*6F
$GLGSV,3,2,9,78,14,322,40,79,17,3,43,85,12,138,44,86,67,144,50*53
$GLGSV,3,3,9,87,48,313,50*6B
$GPGSA,A,3,8,10,13,15,16,20,21,27,32,,,,1.1,0.6,0.8*01
$GLGSA,A,3,70,71,72,78,79,85,86,87,,,,,1.1,0.6,0.8*29
$PNVGBSS,292,292,0,,0.0*7F
$GPRMC,135711.20,A,5545.2926087,N,04844.4651926,E,0.04,28.97,190718,0.0,E,D*02
$GPGGA,135711.20,5545.2926087,N,04844.4651926,E,2,17,0.6,195.237,M,3.896,M,0.0,*7A
$GPGSV,4,1,16,8,35,306,46,10,66,218,50,13,11,28,37,15,33,57,49*4A
$GPGSV,4,2,16,16,10,232,38,20,77,106,45,21,49,114,46,27,59,261,50*73
$GPGSV,4,3,16,32,12,177,39,33,5,248,,36,25,200,41,37,22,211,*48
$GPGSV,4,4,16,38,5,248,,39,23,208,42,40,26,172,,41,19,140,*45
$GLGSV,3,1,9,66,49,282,,70,34,43,38,71,79,126,48,72,34,205,48*6F
$GLGSV,3,2,9,78,14,322,40,79,17,3,43,85,12,138,44,86,67,144,50*53
$GLGSV,3,3,9,87,48,313,50*6B
$GPGSA,A,3,8,10,13,15,16,20,21,27,32,,,,1.1,0.6,0.8*01
$GLGSA,A,3,70,71,72,78,79,85,86,87,,,,,1.1,0.6,0.8*29
$PNVGBSS,293,293,0,,0.0*7F
$GPRMC,135711.40,A,5545.2926064,N,04844.4651965,E,0.04,28.97,190718,0.0,E,D*0E
$GPGGA,135711.40,5545.2926064,N,04844.4651965,E,2,17,0.6,195.251,M,3.896,M,0.0,*76
$GPGSV,4,1,16,8,35,306,46,10,66,218,50,13,11,28,37,15,33,57,49*4A
$GPGSV,4,2,16,16,10,232,38,20,77,106,45,21,49,114,46,27,59,261,50*73
$GPGSV,4,3,16,32,12,177,39,33,5,248,,36,25,200,41,37,22,211,*48
$GPGSV,4,4,16,38,5,248,,39,23,208,42,40,26,172,,41,19,140,*45
$GLGSV,3,1,9,66,49,282,,70,34,43,38,71,79,126,48,72,34,205,48*6F
$GLGSV,3,2,9,78,14,322,40,79,17,3,43,85,12,138,44,86,67,144,50*53
$GLGSV,3,3,9,87,48,313,50*6B
$GPGSA,A,3,8,10,13,15,16,20,21,27,32,,,,1.1,0.6,0.8*01
$GLGSA,A,3,70,71,72,78,79,85,86,87,,,,,1.1,0.6,0.8*29
$PNVGBSS,293,293,0,,0.0*7F
$GPRMC,135711.60,A,5545.2926053,N,04844.4651939,E,0.01,28.97,190718,0.0,E,D*04
$GPGGA,135711.60,5545.2926053,N,04844.4651939,E,2,17,0.6,195.243,M,3.896,M,0.0,*7A
$GPGSV,4,1,16,8,35,306,46,10,66,218,50,13,11,28,37,15,33,57,49*4A
$GPGSV,4,2,16,16,10,232,38,20,77,106,45,21,49,114,46,27,59,261,50*73
$GPGSV,4,3,16,32,12,177,39,33,5,248,,36,25,200,41,37,22,211,*48
$GPGSV,4,4,16,38,5,248,,39,23,208,42,40,26,172,,41,19,140,*45
$GLGSV,3,1,9,66,49,282,,70,34,43,38,71,79,126,48,72,34,205,48*6F
$GLGSV,3,2,9,78,14,322,40,79,17,3,43,85,12,138,44,86,67,144,50*53
$GLGSV,3,3,9,87,48,313,50*6B
$GPGSA,A,3,8,10,13,15,16,20,21,27,32,,,,1.1,0.6,0.8*01
$GLGSA,A,3,70,71,72,78,79,85,86,87,,,,,1.1,0.6,0.8*29
$PNVGBSS,293,293,0,,0.0*7F
$GPRMC,135711.80,A,5545.2926043,N,04844.4651910,E,0.01,28.97,190718,0.0,E,D*00
$GPGGA,135711.80,5545.2926043,N,04844.4651910,E,2,17,0.6,195.238,M,3.896,M,0.0,*72
$GPGSV,4,1,16,8,35,306,46,10,66,218,50,13,11,28,37,15,33,57,49*4A
$GPGSV,4,2,16,16,10,232,38,20,77,106,45,21,49,114,47,27,59,261,50*72
$GPGSV,4,3,16,32,12,177,39,33,5,248,,36,25,200,41,37,22,211,*48
$GPGSV,4,4,16,38,5,248,,39,23,208,42,40,26,172,,41,19,140,*45
$GLGSV,3,1,9,66,49,282,,70,34,43,38,71,79,126,48,72,34,205,48*6F
$GLGSV,3,2,9,78,14,322,40,79,17,3,43,85,12,138,44,86,67,144,50*53
$GLGSV,3,3,9,87,48,313,50*6B
$GPGSA,A,3,8,10,13,15,16,20,21,27,32,,,,1.1,0.6,0.8*01
$GLGSA,A,3,70,71,72,78,79,85,86,87,,,,,1.1,0.6,0.8*29
$PNVGBSS,294,294,0,,0.0*7F
$GPRMC,135712.00,A,5545.2926048,N,04844.4651930,E,0.02,28.97,190718,0.0,E,D*01
$GPGGA,135712.00,5545.2926048,N,04844.4651930,E,2,17,0.6,195.245,M,3.896,M,0.0,*7A
$GPGSV,4,1,16,8,35,306,45,10,66,218,49,13,11,28,35,15,33,57,49*43
$GPGSV,4,2,16,16,10,232,38,20,77,106,45,21,49,114,47,27,59,261,50*72
$GPGSV,4,3,16,32,12,177,39,33,5,248,,36,25,200,42,37,22,211,*4B
$GPGSV,4,4,16,38,5,248,,39,23,208,42,40,26,172,,41,19,140,*45
$GLGSV,3,1,9,66,49,282,,70,34,43,37,71,79,126,48,72,34,205,48*60
$GLGSV,3,2,9,78,14,322,38,79,17,3,43,85,12,138,44,86,67,144,50*5C
$GLGSV,3,3,9,87,48,313,51*6A
$GPGSA,A,3,8,10,13,15,16,20,21,27,32,,,,1.1,0.6,0.8*01
$GLGSA,A,3,70,71,72,78,79,85,86,87,,,,,1.1,0.6,0.8*29
$PNVGBSS,294,294,0,,0.0*7F
$GPRMC,135712.20,A,5545.2926066,N,04844.4651878,E,0.04,28.97,190718,0.0,E,D*04
$GPGGA,135712.20,5545.2926066,N,04844.4651878,E,2,17,0.6,195.237,M,3.896,M,0.0,*7C
$GPGSV,4,1,16,8,35,306,45,10,66,218,49,13,11,28,35,15,33,57,49*43
$GPGSV,4,2,16,16,10,232,38,20,77,106,45,21,49,114,47,27,59,261,50*72
$GPGSV,4,3,16,32,12,177,39,33,5,248,,36,25,200,42,37,22,211,*4B
$GPGSV,4,4,16,38,5,248,,39,23,208,42,40,26,172,,41,19,140,*45
$GLGSV,3,1,9,66,49,282,,70,34,43,37,71,79,126,48,72,34,205,48*60
$GLGSV,3,2,9,78,14,322,38,79,17,3,43,85,12,138,44,86,67,144,50*5C
$GLGSV,3,3,9,87,48,313,51*6A
$GPGSA,A,3,8,10,13,15,16,20,21,27,32,,,,1.1,0.6,0.8*01
$GLGSA,A,3,70,71,72,78,79,85,86,87,,,,,1.1,0.6,0.8*29
$PNVGBSS,295,295,0,,0.0*7F
$GPRMC,135712.40,A,5545.2926073,N,04844.4651940,E,0.04,28.97,190718,0.0,E,D*0C
$GPGGA,135712.40,5545.2926073,N,04844.4651940,E,2,17,0.6,195.234,M,3.896,M,0.0,*77
$GPGSV,4,1,16,8,35,306,45,10,66,218,49,13,11,28,35,15,33,57,49*43
$GPGSV,4,2,16,16,10,232,38,20,77,106,45,21,49,114,47,27,59,261,50*72
$GPGSV,4,3,16,32,12,177,39,33,5,248,,36,25,200,42,37,22,211,*4B
$GPGSV,4,4,16,38,5,248,,39,23,208,42,40,26,172,,41,19,140,*45
$GLGSV,3,1,9,66,49,282,,70,34,43,37,71,79,126,48,72,34,205,48*60
$GLGSV,3,2,9,78,14,322,38,79,17,3,43,85,12,138,44,86,67,144,50*5C
$GLGSV,3,3,9,87,48,313,51*6A
$GPGSA,A,3,8,10,13,15,16,20,21,27,32,,,,1.1,0.6,0.8*01
$GLGSA,A,3,70,71,72,78,79,85,86,87,,,,,1.1,0.6,0.8*29
$PNVGBSS,295,295,0,,0.0*7F
$GPRMC,135712.60,A,5545.2926067,N,04844.4651943,E,0.01,28.97,190718,0.0,E,D*0D
$GPGGA,135712.60,5545.2926067,N,04844.4651943,E,2,17,0.6,195.243,M,3.896,M,0.0,*73
$GPGSV,4,1,16,8,35,306,45,10,66,218,49,13,11,28,35,15,33,57,49*43
$GPGSV,4,2,16,16,10,232,38,20,77,106,45,21,49,114,47,27,59,261,50*72
$GPGSV,4,3,16,32,12,177,39,33,5,248,,36,25,200,42,37,22,211,*4B
$GPGSV,4,4,16,38,5,248,,39,23,208,42,40,26,172,,41,19,140,*45
$GLGSV,3,1,9,66,49,282,,70,34,43,37,71,79,126,48,72,34,205,48*60
$GLGSV,3,2,9,78,14,322,38,79,17,3,43,85,12,138,44,86,67,144,50*5C
$GLGSV,3,3,9,87,48,313,51*6A
$GPGSA,A,3,8,10,13,15,16,20,21,27,32,,,,1.1,0.6,0.8*01
$GLGSA,A,3,70,71,72,78,79,85,86,87,,,,,1.1,0.6,0.8*29
$PNVGBSS,295,295,0,,0.0*7F
$GPRMC,135712.80,A,5545.2926089,N,04844.4651952,E,0.03,28.97,190718,0.0,E,D*01
$GPGGA,135712.80,5545.2926089,N,04844.4651952,E,2,17,0.6,195.238,M,3.896,M,0.0,*71
$GPGSV,4,1,16,8,35,306,45,10,66,218,49,13,11,28,35,15,33,57,49*43
$GPGSV,4,2,16,16,10,232,38,20,77,106,45,21,49,114,47,27,59,261,50*72
$GPGSV,4,3,16,32,12,177,39,33,5,248,,36,25,200,42,37,22,211,*4B
$GPGSV,4,4,16,38,5,248,,39,23,208,41,40,26,172,,41,19,140,*46
$GLGSV,3,1,9,66,49,282,,70,34,43,37,71,79,126,48,72,34,205,48*60
$GLGSV,3,2,9,78,14,322,38,79,17,3,43,85,12,138,44,86,67,144,50*5C
$GLGSV,3,3,9,87,48,313,51*6A
$GPGSA,A,3,8,10,13,15,16,20,21,27,32,,,,1.1,0.6,0.8*01
$GLGSA,A,3,70,71,72,78,79,85,86,87,,,,,1.1,0.6,0.8*29
$PNVGBSS,296,296,0,,0.0*7F
$GPRMC,135713.00,A,5545.2925998,N,04844.4652020,E,0.10,28.97,190718,0.0,E,D*0F
$GPGGA,135713.00,5545.2925998,N,04844.4652020,E,2,17,0.6,195.239,M,3.896,M,0.0,*7C
$GPGSV,4,1,16,8,35,306,43,10,66,218,49,13,11,28,37,15,33,57,49*47
$GPGSV,4,2,16,16,10,232,38,20,77,106,46,21,49,114,47,27,59,261,50*71
$GPGSV,4,3,16,32,12,177,39,33,5,248,,36,25,200,42,37,22,211,*4B
$GPGSV,4,4,16,38,5,248,,39,23,208,42,40,26,172,,41,19,140,*45
$GLGSV,3,1,9,66,49,282,,70,34,43,38,71,79,126,48,72,34,205,48*6F
$GLGSV,3,2,9,78,14,322,40,79,17,3,43,85,12,138,44,86,67,144,50*53
$GLGSV,3,3,9,87,48,313,48*62
$GPGSA,A,3,8,10,13,15,16,20,21,27,32,,,,1.1,0.6,0.8*01
$GLGSA,A,3,70,71,72,78,79,85,86,87,,,,,1.1,0.6,0.8*29
$PNVGBSS,296,296,0,,0.0*7F
$GPRMC,135713.20,A,5545.2925928,N,04844.4651901,E,0.12,28.97,190718,0.0,E,D*0D
$GPGGA,135713.20,5545.2925928,N,04844.4651901,E,2,17,0.6,195.237,M,3.896,M,0.0,*72
$GPGSV,4,1,16,8,35,306,43,10,66,218,49,13,11,28,37,15,33,57,49*47
$GPGSV,4,2,16,16,10,232,38,20,77,106,46,21,49,114,47,27,59,261,50*71
$GPGSV,4,3,16,32,12,177,39,33,5,248,,36,25,200,42,37,22,211,*4B
$GPGSV,4,4,16,38,5,248,,39,23,208,42,40,26,172,,41,19,140,*45
$GLGSV,3,1,9,66,49,282,,70,34,43,38,71,79,126,48,72,34,205,48*6F
$GLGSV,3,2,9,78,14,322,40,79,17,3,43,85,12,138,44,86,67,144,50*53
$GLGSV,3,3,9,87,48,313,48*62
$GPGSA,A,3,8,10,13,15,16,20,21,27,32,,,,1.1,0.6,0.8*01
$GLGSA,A,3,70,71,72,78,79,85,86,87,,,,,1.1,0.6,0.8*29
$PNVGBSS,296,296,0,,0.0*7F
$GPRMC,135713.40,A,5545.2925939,N,04844.4651918,E,0.01,28.97,190718,0.0,E,D*01
$GPGGA,135713.40,5545.2925939,N,04844.4651918,E,2,17,0.6,195.234,M,3.896,M,0.0,*7F
$GPGSV,4,1,16,8,35,306,43,10,66,218,49,13,11,28,37,15,33,57,49*47
$GPGSV,4,2,16,16,10,232,38,20,77,106,46,21,49,114,47,27,59,261,50*71
$GPGSV,4,3,16,32,12,177,39,33,5,248,,36,25,200,42,37,22,211,*4B
$GPGSV,4,4,16,38,5,248,,39,23,208,42,40,26,172,,41,19,140,*45
$GLGSV,3,1,9,66,49,282,,70,34,43,38,71,79,126,48,72,34,205,48*6F
$GLGSV,3,2,9,78,14,322,40,79,17,3,43,85,12,138,44,86,67,144,50*53
$GLGSV,3,3,9,87,48,313,48*62
$GPGSA,A,3,8,10,13,15,16,20,21,27,32,,,,1.1,0.6,0.8*01
$GLGSA,A,3,70,71,72,78,79,85,86,87,,,,,1.1,0.6,0.8*29
$PNVGBSS,297,297,0,,0.0*7F
$GPRMC,135713.60,A,5545.2925917,N,04844.4651796,E,0.08,28.97,190718,0.0,E,D*0E
$GPGGA,135713.60,5545.2925917,N,04844.4651796,E,2,17,0.6,195.203,M,3.896,M,0.0,*7D
$GPGSV,4,1,16,8,35,306,43,10,66,218,49,13,11,28,37,15,33,57,49*47
$GPGSV,4,2,16,16,10,232,38,20,77,106,46,21,49,114,47,27,59,261,50*71
$GPGSV,4,3,16,32,12,177,39,33,5,248,,36,25,200,42,37,22,211,*4B
$GPGSV,4,4,16,38,5,248,,39,23,208,42,40,26,172,,41,19,140,*45
$GLGSV,3,1,9,66,49,282,,70,34,43,38,71,79,126,48,72,34,205,48*6F
$GLGSV,3,2,9,78,14,322,40,79,17,3,43,85,12,138,44,86,67,144,50*53
$GLGSV,3,3,9,87,48,313,48*62
$GPGSA,A,3,8,10,13,15,16,20,21,27,32,,,,1.1,0.6,0.8*01
$GLGSA,A,3,70,71,72,78,79,85,86,87,,,,,1.1,0.6,0.8*29
$PNVGBSS,297,297,0,,0.0*7F
$GPRMC,135713.80,A,5545.2925881,N,04844.4651716,E,0.09,28.97,190718,0.0,E,D*07
$GPGGA,135713.80,5545.2925881,N,04844.4651716,E,2,17,0.6,195.197,M,3.896,M,0.0,*7B
$GPGSV,4,1,16,8,35,306,43,10,66,218,49,13,11,28,37,15,33,57,49*47
$GPGSV,4,2,16,16,10,232,38,20,77,106,46,21,49,114,47,27,59,261,50*71
$GPGSV,4,3,16,32,12,177,39,33,5,248,,36,25,200,42,37,22,211,*4B
$GPGSV,4,4,16,38,5,248,,39,23,208,41,40,26,172,,41,19,140,*46
$GLGSV,3,1,9,66,49,282,,70,34,43,38,71,79,126,48,72,34,205,48*6F
$GLGSV,3,2,9,78,14,322,40,79,17,3,43,85,12,138,44,86,67,144,50*53
$GLGSV,3,3,9,87,48,313,48*62
$GPGSA,A,3,8,10,13,15,16,20,21,27,32,,,,1.1,0.6,0.8*01
$GLGSA,A,3,70,71,72,78,79,85,86,87,,,,,1.1,0.6,0.8*29
$PNVGBSS,298,298,0,,0.0*7F
$GPRMC,135714.00,A,5545.2925792,N,04844.4651700,E,0.12,28.97,190718,0.0,E,D*08
$GPGGA,135714.00,5545.2925792,N,04844.4651700,E,2,17,0.6,195.183,M,3.896,M,0.0,*7B
$GPGSV,4,1,16,8,35,306,43,10,66,218,50,13,11,28,35,15,33,57,50*45
$GPGSV,4,2,16,16,10,232,39,20,77,106,45,21,49,114,46,27,59,261,50*72
$GPGSV,4,3,16,32,12,177,39,33,5,248,,36,25,200,42,37,22,211,*4B
$GPGSV,4,4,16,38,5,248,,39,23,208,41,40,26,172,,41,19,140,*46
$GLGSV,3,1,9,66,49,282,,70,34,43,38,71,79,126,47,72,34,205,48*60
$GLGSV,3,2,9,78,14,322,38,79,17,3,42,85,12,138,45,86,67,144,50*5C
$GLGSV,3,3,9,87,48,313,43*69
$GPGSA,A,3,8,10,13,15,16,20,21,27,32,,,,1.1,0.6,0.8*01
$GLGSA,A,3,70,71,72,78,79,85,86,87,,,,,1.1,0.6,0.8*29
$PNVGBSS,298,298,0,,0.0*7F
$GPRMC,135714.20,A,5545.2925795,N,04844.4651643,E,0.06,28.97,190718,0.0,E,D*0E
$GPGGA,135714.20,5545.2925795,N,04844.4651643,E,2,17,0.6,195.198,M,3.896,M,0.0,*72
$GPGSV,4,1,16,8,35,306,43,10,66,218,50,13,11,28,35,15,33,57,50*45
$GPGSV,4,2,16,16,10,232,39,20,77,106,45,21,49,114,46,27,59,261,50*72
$GPGSV,4,3,16,32,12,177,39,33,5,248,,36,25,200,42,37,22,211,*4B
$GPGSV,4,4,16,38,5,248,,39,23,208,41,40,26,172,,41,19,140,*46
$GLGSV,3,1,9,66,49,282,,70,34,43,38,71,79,126,47,72,34,205,48*60
$GLGSV,3,2,9,78,14,322,38,79,17,3,42,85,12,138,45,86,67,144,50*5C
$GLGSV,3,3,9,87,48,313,43*69
$GPGSA,A,3,8,10,13,15,16,20,21,27,32,,,,1.1,0.6,0.8*01
$GLGSA,A,3,70,71,72,78,79,85,86,87,,,,,1.1,0.6,0.8*29
$PNVGBSS,298,298,0,,0.0*7F
$GPRMC,135714.40,A,5545.2925789,N,04844.4651680,E,0.02,28.97,190718,0.0,E,D*0E
$GPGGA,135714.40,5545.2925789,N,04844.4651680,E,2,17,0.6,195.197,M,3.896,M,0.0,*79
$GPGSV,4,1,16,8,35,306,43,10,66,218,49,13,11,28,35,15,33,57,50*4D
$GPGSV,4,2,16,16,10,232,39,20,77,106,45,21,49,114,46,27,59,261,50*72
$GPGSV,4,3,16,32,12,177,39,33,5,248,,36,25,200,42,37,22,211,*4B
$GPGSV,4,4,16,38,5,248,,39,23,208,41,40,26,172,,41,19,140,*46
$GLGSV,3,1,9,66,49,282,,70,34,43,38,71,79,126,47,72,34,205,48*60
$GLGSV,3,2,9,78,14,322,38,79,17,3,42,85,12,138,45,86,67,144,50*5C
$GLGSV,3,3,9,87,48,313,43*69
$GPGSA,A,3,8,10,13,15,16,20,21,27,32,,,,1.1,0.6,0.8*01
$GLGSA,A,3,70,71,72,78,79,85,86,87,,,,,1.1,0.6,0.8*29
$PNVGBSS,299,299,0,,0.0*7F
$GPRMC,135714.60,A,5545.2925849,N,04844.4651633,E,0.08,28.97,190718,0.0,E,D*0D
$GPGGA,135714.60,5545.2925849,N,04844.4651633,E,2,17,0.6,195.182,M,3.896,M,0.0,*74
$GPGSV,4,1,16,8,35,306,43,10,66,218,49,13,11,28,35,15,33,57,50*4D
$GPGSV,4,2,16,16,10,232,39,20,77,106,45,21,49,114,46,27,59,261,50*72
$GPGSV,4,3,16,32,12,177,39,33,5,248,,36,25,200,42,37,22,211,*4B
$GPGSV,4,4,16,38,5,248,,39,23,208,41,40,26,172,,41,19,140,*46
$GLGSV,3,1,9,66,49,282,,70,34,43,38,71,79,126,47,72,34,205,48*60
$GLGSV,3,2,9,78,14,322,38,79,17,3,42,85,12,138,45,86,67,144,50*5C
$GLGSV,3,3,9,87,48,313,43*69
$GPGSA,A,3,8,10,13,15,16,20,21,27,32,,,,1.1,0.6,0.8*01
$GLGSA,A,3,70,71,72,78,79,85,86,87,,,,,1.1,0.6,0.8*29
$PNVGBSS,300,300,0,,0.0*7F
$GPRMC,135714.80,A,5545.2925815,N,04844.4651691,E,0.03,28.97,190718,0.0,E,D*09
$GPGGA,135714.80,5545.2925815,N,04844.4651691,E,2,17,0.6,195.205,M,3.896,M,0.0,*77
$GPGSV,4,1,16,8,35,306,43,10,66,218,49,13,11,28,35,15,33,57,50*4D
$GPGSV,4,2,16,16,10,232,39,20,77,106,45,21,49,114,46,27,59,261,50*72
$GPGSV,4,3,16,32,12,177,39,33,5,248,,36,25,200,42,37,22,211,*4B
$GPGSV,4,4,16,38,5,248,,39,23,208,41,40,26,172,,41,19,140,*46
$GLGSV,3,1,9,66,49,282,,70,34,43,38,71,79,126,47,72,34,205,48*60
$GLGSV,3,2,9,78,14,322,38,79,17,3,42,85,12,138,45,86,67,144,50*5C
$GLGSV,3,3,9,87,48,313,43*69
$GPGSA,A,3,8,10,13,15,16,20,21,27,32,,,,1.1,0.6,0.8*01
$GLGSA,A,3,70,71,72,78,79,85,86,87,,,,,1.1,0.6,0.8*29
$PNVGBSS,301,301,0,,0.0*7F
$GPRMC,135715.00,A,5545.2925804,N,04844.4651723,E,0.03,28.97,190718,0.0,E,D*08
$GPGGA,135715.00,5545.2925804,N,04844.4651723,E,2,17,0.6,195.190,M,3.896,M,0.0,*79
$GPGSV,4,1,16,8,35,306,43,10,66,218,49,13,11,28,22,15,33,57,51*4A
$GPGSV,4,2,16,16,10,232,36,20,77,106,42,21,49,114,46,27,59,261,48*73
$GPGSV,4,3,16,32,12,177,38,33,5,248,,36,25,200,41,37,22,211,*49
$GPGSV,4,4,16,38,5,248,,39,23,208,41,40,26,172,,41,19,140,*46
$GLGSV,3,1,9,66,49,282,,70,34,43,36,71,79,126,45,72,34,205,48*6C
$GLGSV,3,2,9,78,14,322,34,79,17,3,33,85,12,138,42,86,67,144,50*51
$GLGSV,3,3,9,87,48,313,43*69
$GPGSA,A,3,8,10,13,15,16,20,21,27,32,,,,1.1,0.6,0.8*01
$GLGSA,A,3,70,71,72,78,79,85,86,87,,,,,1.1,0.6,0.8*29
$PNVGBSS,301,301,0,,0.0*7F
$GPRMC,135715.20,A,5545.2925773,N,04844.4651829,E,0.09,28.97,190718,0.0,E,D*0A
$GPGGA,135715.20,5545.2925773,N,04844.4651829,E,2,17,0.6,195.192,M,3.896,M,0.0,*73
$GPGSV,4,1,16,8,35,306,43,10,66,218,49,13,11,28,22,15,33,57,51*4A
$GPGSV,4,2,16,16,10,232,36,20,77,106,42,21,49,114,46,27,59,261,48*73
$GPGSV,4,3,16,32,12,177,38,33,5,248,,36,25,200,41,37,22,211,*49
$GPGSV,4,4,16,38,5,248,,39,23,208,41,40,26,172,,41,19,140,*46
$GLGSV,3,1,9,66,49,282,,70,34,43,36,71,79,126,45,72,34,205,48*6C
$GLGSV,3,2,9,78,14,322,34,79,17,3,33,85,12,138,42,86,67,144,50*51
$GLGSV,3,3,9,87,48,313,43*69
$GPGSA,A,3,8,10,13,15,16,20,21,27,32,,,,1.1,0.6,0.8*01
$GLGSA,A,3,70,71,72,78,79,85,86,87,,,,,1.1,0.6,0.8*29
$PNVGBSS,301,301,0,,0.0*7F
$GPRMC,135715.40,A,5545.2925798,N,04844.4651813,E,0.03,28.97,190718,0.0,E,D*0A
$GPGGA,135715.40,5545.2925798,N,04844.4651813,E,2,17,0.6,195.170,M,3.896,M,0.0,*75
$GPGSV,4,1,16,8,35,306,43,10,66,218,49,13,11,28,22,15,33,57,51*4A
$GPGSV,4,2,16,16,10,232,36,20,77,106,43,21,49,114,47,27,59,261,48*73
$GPGSV,4,3,16,32,12,177,38,33,5,248,,36,25,200,41,37,22,211,*49
$GPGSV,4,4,16,38,5,248,,39,23,208,41,40,26,172,,41,19,140,*46
$GLGSV,3,1,9,66,49,282,,70,34,43,36,71,79,126,45,72,34,205,48*6C
$GLGSV,3,2,9,78,14,322,34,79,17,3,33,85,12,138,42,86,67,144,50*51
$GLGSV,3,3,9,87,48,313,43*69
$GPGSA,A,3,8,10,13,15,16,20,21,27,32,,,,1.1,0.6,0.8*01
$GLGSA,A,3,70,71,72,78,79,85,86,87,,,,,1.1,0.6,0.8*29
$PNVGBSS,302,302,0,,0.0*7F
$GPRMC,135715.60,A,5545.2925734,N,04844.4651819,E,0.07,28.97,190718,0.0,E,D*00
$GPGGA,135715.60,5545.2925734,N,04844.4651819,E,2,17,0.6,195.189,M,3.896,M,0.0,*7D
$GPGSV,4,1,16,8,35,306,43,10,66,218,49,13,11,28,22,15,33,57,51*4A
$GPGSV,4,2,16,16,10,232,36,20,77,106,43,21,49,114,46,27,59,261,48*72
$GPGSV,4,3,16,32,12,177,38,33,5,248,,36,25,200,41,37,22,211,*49
$GPGSV,4,4,16,38,5,248,,39,23,208,41,40,26,172,,41,19,140,*46
$GLGSV,3,1,9,66,49,282,,70,34,43,36,71,79,126,45,72,34,205,48*6C
$GLGSV,3,2,9,78,14,322,34,79,17,3,33,85,12,138,42,86,67,144,50*51
$GLGSV,3,3,9,87,48,313,43*69
$GPGSA,A,3,8,10,13,15,16,20,21,27,32,,,,1.1,0.6,0.8*01
$GLGSA,A,3,70,71,72,78,79,85,86,87,,,,,1.1,0.6,0.8*29
$PNVGBSS,302,302,0,,0.0*7F
$GPRMC,135715.80,A,5545.2925810,N,04844.4651724,E,0.09,28.97,190718,0.0,E,D*08
$GPGGA,135715.80,5545.2925810,N,04844.4651724,E,2,17,0.6,195.169,M,3.896,M,0.0,*75
$GPGSV,4,1,16,8,35,306,43,10,66,218,49,13,11,28,22,15,33,57,51*4A
$GPGSV,4,2,16,16,10,232,36,20,77,106,43,21,49,114,47,27,59,261,48*73
$GPGSV,4,3,16,32,12,177,38,33,5,248,,36,25,200,41,37,22,211,*49
$GPGSV,4,4,16,38,5,248,,39,23,208,41,40,26,172,,41,19,140,*46
$GLGSV,3,1,9,66,49,282,,70,34,43,36,71,79,126,45,72,34,205,48*6C
$GLGSV,3,2,9,78,14,322,34,79,17,3,33,85,12,138,42,86,67,144,50*51
$GLGSV,3,3,9,87,48,313,43*69
$GPGSA,A,3,8,10,13,15,16,20,21,27,32,,,,1.1,0.6,0.8*01
$GLGSA,A,3,70,71,72,78,79,85,86,87,,,,,1.1,0.6,0.8*29
$PNVGBSS,303,303,0,,0.0*7F
$GPRMC,135716.00,A,5545.2925802,N,04844.4651773,E,0.02,28.97,190718,0.0,E,D*09
$GPGGA,135716.00,5545.2925802,N,04844.4651773,E,2,17,0.6,195.147,M,3.896,M,0.0,*73
$GPGSV,4,1,16,8,35,306,40,10,66,218,47,13,11,28,23,15,33,57,49*4F
$GPGSV,4,2,16,16,10,232,36,20,77,106,40,21,49,114,47,27,59,261,46*7E
$GPGSV,4,3,16,32,12,177,38,33,5,248,,36,25,200,40,37,22,211,*48
$GPGSV,4,4,16,38,5,248,,39,23,208,41,40,26,172,,41,19,140,*46
$GLGSV,3,1,9,66,49,282,,70,34,43,34,71,79,126,43,72,34,205,48*68
$GLGSV,3,2,9,78,14,322,31,79,17,3,31,85,12,138,45,86,67,144,48*58
$GLGSV,3,3,9,87,48,313,39*64
$GPGSA,A,3,8,10,13,15,16,20,21,27,32,,,,1.1,0.6,0.8*01
$GLGSA,A,3,70,71,72,78,79,85,86,87,,,,,1.1,0.6,0.8*29
$PNVGBSS,303,303,0,,0.0*7F
$GPRMC,135716.20,A,5545.2925709,N,04844.4652059,E,0.22,28.97,190718,0.0,E,D*01
$GPGGA,135716.20,5545.2925709,N,04844.4652059,E,2,17,0.6,195.168,M,3.896,M,0.0,*74
$GPGSV,4,1,16,8,35,306,40,10,66,218,47,13,11,28,23,15,33,57,49*4F
$GPGSV,4,2,16,16,10,232,36,20,77,106,40,21,49,114,47,27,59,261,46*7E
$GPGSV,4,3,16,32,12,177,38,33,5,248,,36,25,200,40,37,22,211,*48
$GPGSV,4,4,16,38,5,248,,39,23,208,41,40,26,172,,41,19,140,*46
$GLGSV,3,1,9,66,49,282,,70,34,43,34,71,79,126,43,72,34,205,48*68
$GLGSV,3,2,9,78,14,322,31,79,17,3,31,85,12,138,45,86,67,144,48*58
$GLGSV,3,3,9,87,48,313,39*64
$GPGSA,A,3,8,10,13,15,16,20,21,27,32,,,,1.1,0.6,0.8*01
$GLGSA,A,3,70,71,72,78,79,85,86,87,,,,,1.1,0.6,0.8*29
$PNVGBSS,303,303,0,,0.0*7F
$GPRMC,135716.40,A,5545.2925688,N,04844.4652157,E,0.14,28.97,190718,0.0,E,D*05
$GPGGA,135716.40,5545.2925688,N,04844.4652157,E,2,17,0.6,195.182,M,3.896,M,0.0,*71
$GPGSV,4,1,16,8,35,306,40,10,66,218,47,13,11,28,23,15,33,57,49*4F
$GPGSV,4,2,16,16,10,232,36,20,77,106,40,21,49,114,47,27,59,261,47*7F
$GPGSV,4,3,16,32,12,177,38,33,5,248,,36,25,200,40,37,22,211,*48
$GPGSV,4,4,16,38,5,248,,39,23,208,41,40,26,172,,41,19,140,*46
$GLGSV,3,1,9,66,49,282,,70,34,43,34,71,79,126,43,72,34,205,48*68
$GLGSV,3,2,9,78,14,322,31,79,17,3,31,85,12,138,45,86,67,144,48*58
$GLGSV,3,3,9,87,48,313,39*64
$GPGSA,A,3,8,10,13,15,16,20,21,27,32,,,,1.1,0.6,0.8*01
$GLGSA,A,3,70,71,72,78,79,85,86,87,,,,,1.1,0.6,0.8*29
$PNVGBSS,303,303,0,,0.0*7F
$GPRMC,135716.60,A,5545.2925645,N,04844.4652282,E,0.15,28.97,190718,0.0,E,D*0C
$GPGGA,135716.60,5545.2925645,N,04844.4652282,E,2,17,0.6,195.174,M,3.896,M,0.0,*70
$GPGSV,4,1,16,8,35,306,40,10,66,218,47,13,11,28,23,15,33,57,49*4F
$GPGSV,4,2,16,16,10,232,36,20,77,106,40,21,49,114,47,27,59,261,47*7F
$GPGSV,4,3,16,32,12,177,38,33,5,248,,36,25,200,40,37,22,211,*48
$GPGSV,4,4,16,38,5,248,,39,23,208,41,40,26,172,,41,19,140,*46
$GLGSV,3,1,9,66,49,282,,70,34,43,34,71,79,126,43,72,34,205,48*68
$GLGSV,3,2,9,78,14,322,31,79,17,3,31,85,12,138,45,86,67,144,48*58
$GLGSV,3,3,9,87,48,313,39*64
$GPGSA,A,3,8,10,13,15,16,20,21,27,32,,,,1.1,0.6,0.8*01
$GLGSA,A,3,70,71,72,78,79,85,86,87,,,,,1.1,0.6,0.8*29
$PNVGBSS,304,304,0,,0.0*7F
$GPRMC,135716.80,A,5545.2925670,N,04844.4652358,E,0.10,28.97,190718,0.0,E,D*07
$GPGGA,135716.80,5545.2925670,N,04844.4652358,E,2,17,0.6,195.310,M,3.896,M,0.0,*7E
$GPGSV,4,1,16,8,35,306,40,10,66,218,47,13,11,28,23,15,33,57,49*4F
$GPGSV,4,2,16,16,10,232,36,20,77,106,40,21,49,114,47,27,59,261,47*7F
$GPGSV,4,3,16,32,12,177,38,33,5,248,,36,25,200,40,37,22,211,*48
$GPGSV,4,4,16,38,5,248,,39,23,208,41,40,26,172,,41,19,140,*46
$GLGSV,3,1,9,66,49,282,,70,34,43,34,71,79,126,43,72,34,205,48*68
$GLGSV,3,2,9,78,14,322,31,79,17,3,31,85,12,138,45,86,67,144,48*58
$GLGSV,3,3,9,87,48,313,39*64
$GPGSA,A,3,8,10,13,15,16,20,21,27,32,,,,1.1,0.6,0.8*01
$GLGSA,A,3,70,71,72,78,79,85,86,87,,,,,1.1,0.6,0.8*29
$PNVGBSS,304,304,0,,0.0*7F
$GPRMC,135717.00,A,5545.2925701,N,04844.4652731,E,0.30,28.97,190718,0.0,E,D*00
$GPGGA,135717.00,5545.2925701,N,04844.4652731,E,2,17,0.6,195.456,M,3.896,M,0.0,*7E
$GPGSV,4,1,16,8,35,306,36,10,66,218,43,13,11,28,26,15,33,57,45*43
$GPGSV,4,2,16,16,10,232,37,20,77,106,36,21,49,114,45,27,59,261,41*7B
$GPGSV,4,3,16,32,12,177,41,33,5,248,,36,25,200,40,37,22,211,*46
$GPGSV,4,4,16,38,5,248,,39,23,208,40,40,26,172,,41,19,140,*47
$GLGSV,3,1,9,66,49,282,,70,34,43,29,71,79,126,39,72,34,205,47*66
$GLGSV,3,2,9,78,14,322,33,79,17,3,30,85,12,138,45,86,67,144,44*57
$GLGSV,3,3,9,87,48,313,37*6A
$GPGSA,A,3,8,10,13,15,16,20,21,27,32,,,,1.1,0.6,0.8*01
$GLGSA,A,3,70,71,72,78,79,85,86,87,,,,,1.1,0.6,0.8*29
$PNVGBSS,305,305,0,,0.0*7F
$GPRMC,135717.20,A,5545.2926218,N,04844.4652852,E,0.69,28.97,190718,0.0,E,D*0A
$GPGGA,135717.20,5545.2926218,N,04844.4652852,E,2,17,0.6,195.620,M,3.896,M,0.0,*7B
$GPGSV,4,1,16,8,35,306,36,10,66,218,43,13,11,28,26,15,33,57,45*43
$GPGSV,4,2,16,16,10,232,37,20,77,106,36,21,49,114,45,27,59,261,41*7B
$GPGSV,4,3,16,32,12,177,41,33,5,248,,36,25,200,40,37,22,211,*46
$GPGSV,4,4,16,38,5,248,,39,23,208,40,40,26,172,,41,19,140,*47
$GLGSV,3,1,9,66,49,282,,70,34,43,29,71,79,126,39,72,34,205,47*66
$GLGSV,3,2,9,78,14,322,33,79,17,3,30,85,12,138,45,86,67,144,44*57
$GLGSV,3,3,9,87,48,313,37*6A
$GPGSA,A,3,8,10,13,15,16,20,21,27,32,,,,1.1,0.6,0.8*01
$GLGSA,A,3,70,71,72,78,79,85,86,87,,,,,1.1,0.6,0.8*29
$PNVGBSS,305,305,0,,0.0*7F
$GPRMC,135717.40,A,5545.2925581,N,04844.4652248,E,0.61,28.97,190718,0.0,E,D*01
$GPGGA,135717.40,5545.2925581,N,04844.4652248,E,2,17,0.6,195.883,M,3.896,M,0.0,*7F
$GPGSV,4,1,16,8,35,306,36,10,66,218,43,13,11,28,26,15,33,57,45*43
$GPGSV,4,2,16,16,10,232,37,20,77,106,36,21,49,114,45,27,59,261,41*7B
$GPGSV,4,3,16,32,12,177,41,33,5,248,,36,25,200,40,37,22,211,*46
$GPGSV,4,4,16,38,5,248,,39,23,208,40,40,26,172,,41,19,140,*47
$GLGSV,3,1,9,66,49,282,,70,34,43,29,71,79,126,39,72,34,205,47*66
$GLGSV,3,2,9,78,14,322,33,79,17,3,30,85,12,138,45,86,67,144,44*57
$GLGSV,3,3,9,87,48,313,37*6A
$GPGSA,A,3,8,10,13,15,16,20,21,27,32,,,,1.1,0.6,0.8*01
$GLGSA,A,3,70,71,72,78,79,85,86,87,,,,,1.1,0.6,0.8*29
$PNVGBSS,305,305,0,,0.0*7F
$GPRMC,135717.60,A,5545.2925706,N,04844.4651314,E,0.71,28.97,190718,0.0,E,D*04
$GPGGA,135717.60,5545.2925706,N,04844.4651314,E,2,17,0.6,196.181,M,3.896,M,0.0,*73
$GPGSV,4,1,16,8,35,306,35,10,66,218,43,13,11,28,26,15,33,57,45*40
$GPGSV,4,2,16,16,10,232,37,20,77,106,36,21,49,114,45,27,59,261,40*7A
$GPGSV,4,3,16,32,12,177,41,33,5,248,,36,25,200,40,37,22,211,*46
$GPGSV,4,4,16,38,5,248,,39,23,208,40,40,26,172,,41,19,140,*47
$GLGSV,3,1,9,66,49,282,,70,34,43,29,71,79,126,39,72,34,205,47*66
$GLGSV,3,2,9,78,14,322,33,79,17,3,30,85,12,138,45,86,67,144,44*57
$GLGSV,3,3,9,87,48,313,37*6A
$GPGSA,A,3,8,10,13,15,16,20,21,27,32,,,,1.1,0.6,0.8*01
$GLGSA,A,3,70,71,72,78,79,85,86,87,,,,,1.1,0.6,0.8*29
$PNVGBSS,305,305,0,,0.0*7F
$GPRMC,135717.80,A,5545.2925511,N,04844.4650651,E,0.69,28.97,190718,0.0,E,D*02
$GPGGA,135717.80,5545.2925511,N,04844.4650651,E,2,17,0.6,196.239,M,3.896,M,0.0,*7C
$GPGSV,4,1,16,8,35,306,35,10,66,218,43,13,11,28,26,15,33,57,45*40
$GPGSV,4,2,16,16,10,232,37,20,77,106,36,21,49,114,45,27,59,261,40*7A
$GPGSV,4,3,16,32,12,177,41,33,5,248,,36,25,200,40,37,22,211,*46
$GPGSV,4,4,16,38,5,248,,39,23,208,40,40,26,172,,41,19,140,*47
$GLGSV,3,1,9,66,49,282,,70,34,43,29,71,79,126,39,72,34,205,47*66
$GLGSV,3,2,9,78,14,322,33,79,17,3,30,85,12,138,45,86,67,144,44*57
$GLGSV,3,3,9,87,48,313,37*6A
$GPGSA,A,3,8,10,13,15,16,20,21,27,32,,,,1.1,0.6,0.8*01
$GLGSA,A,3,70,71,72,78,79,85,86,87,,,,,1.1,0.6,0.8*29
$PNVGBSS,306,306,0,,0.0*7F
$GPRMC,135718.00,A,5545.2925605,N,04844.4650393,E,0.39,28.97,190718,0.0,E,D*0D
$GPGGA,135718.00,5545.2925605,N,04844.4650393,E,2,17,0.6,196.398,M,3.896,M,0.0,*7C
$GPGSV,4,1,16,8,35,306,45,10,66,218,48,13,11,28,30,15,33,57,40*4E
$GPGSV,4,2,16,16,10,232,45,20,77,106,40,21,49,114,45,27,59,261,49*77
$GPGSV,4,3,16,32,12,177,43,33,5,248,,36,25,200,45,37,22,211,*41
$GPGSV,4,4,16,38,5,248,,39,23,208,42,40,26,172,,41,19,140,*45
$GLGSV,3,1,9,66,49,282,,70,34,43,26,71,79,126,45,72,34,205,50*64
$GLGSV,3,2,9,78,14,322,42,79,17,3,32,85,12,138,44,86,67,144,48*5E
$GLGSV,3,3,9,87,48,313,45*6F
$GPGSA,A,3,8,10,13,15,16,20,21,27,32,,,,1.1,0.6,0.8*01
$GLGSA,A,3,70,71,72,78,79,85,86,87,,,,,1.1,0.6,0.8*29
$PNVGBSS,306,306,0,,0.0*7F
$GPRMC,135718.20,A,5545.2925832,N,04844.4650207,E,0.41,28.97,190718,0.0,E,D*06
$GPGGA,135718.20,5545.2925832,N,04844.4650207,E,2,17,0.6,196.596,M,3.896,M,0.0,*70
$GPGSV,4,1,16,8,35,306,45,10,66,218,48,13,11,28,30,15,33,57,40*4E
$GPGSV,4,2,16,16,10,232,45,20,77,106,40,21,49,114,45,27,59,261,49*77
$GPGSV,4,3,16,32,12,177,43,33,5,248,,36,25,200,45,37,22,211,*41
$GPGSV,4,4,16,38,5,248,,39,23,208,42,40,26,172,,41,19,140,*45
$GLGSV,3,1,9,66,49,282,,70,34,43,26,71,79,126,45,72,34,205,50*64
$GLGSV,3,2,9,78,14,322,42,79,17,3,32,85,12,138,44,86,67,144,48*5E
$GLGSV,3,3,9,87,48,313,45*6F
$GPGSA,A,3,8,10,13,15,16,20,21,27,32,,,,1.1,0.6,0.8*01
$GLGSA,A,3,70,71,72,78,79,85,86,87,,,,,1.1,0.6,0.8*29
$PNVGBSS,306,306,0,,0.0*7F
$GPRMC,135718.40,A,5545.2925308,N,04844.4649966,E,0.52,28.97,190718,0.0,E,D*04
$GPGGA,135718.40,5545.2925308,N,04844.4649966,E,2,17,0.6,196.866,M,3.896,M,0.0,*72
$GPGSV,4,1,16,8,35,306,45,10,66,218,48,13,11,28,30,15,33,57,40*4E
$GPGSV,4,2,16,16,10,232,45,20,77,106,40,21,49,114,45,27,59,261,49*77
$GPGSV,4,3,16,32,12,177,43,33,5,248,,36,25,200,45,37,22,211,*41
$GPGSV,4,4,16,38,5,248,,39,23,208,42,40,26,172,,41,19,140,*45
$GLGSV,3,1,9,66,49,282,,70,34,43,26,71,79,126,45,72,34,205,50*64
$GLGSV,3,2,9,78,14,322,42,79,17,3,32,85,12,138,44,86,67,144,48*5E
$GLGSV,3,3,9,87,48,313,45*6F
$GPGSA,A,3,8,10,13,15,16,20,21,27,32,,,,1.1,0.6,0.8*01
$GLGSA,A,3,70,71,72,78,79,85,86,87,,,,,1.1,0.6,0.8*29
$PNVGBSS,306,306,0,,0.0*7F
$GPRMC,135718.60,A,5545.2925422,N,04844.4649962,E,0.04,28.97,190718,0.0,E,D*0E
$GPGGA,135718.60,5545.2925422,N,04844.4649962,E,2,17,0.6,197.025,M,3.896,M,0.0,*75
$GPGSV,4,1,16,8,35,306,45,10,66,218,48,13,11,28,30,15,33,57,40*4E
$GPGSV,4,2,16,16,10,232,45,20,77,106,40,21,49,114,45,27,59,261,49*77
$GPGSV,4,3,16,32,12,177,43,33,5,248,,36,25,200,45,37,22,211,*41
$GPGSV,4,4,16,38,5,248,,39,23,208,42,40,26,172,,41,19,140,*45
$GLGSV,3,1,9,66,49,282,,70,34,43,26,71,79,126,44,72,34,205,50*65
$GLGSV,3,2,9,78,14,322,42,79,17,3,32,85,12,138,44,86,67,144,48*5E
$GLGSV,3,3,9,87,48,313,45*6F
$GPGSA,A,3,8,10,13,15,16,20,21,27,32,,,,1.1,0.6,0.8*01
$GLGSA,A,3,70,71,72,78,79,85,86,87,,,,,1.1,0.6,0.8*29
$PNVGBSS,306,306,0,,0.0*7F
$GPRMC,135718.80,A,5545.2924849,N,04844.4650832,E,0.89,28.97,190718,0.0,E,D*09
$GPGGA,135718.80,5545.2924849,N,04844.4650832,E,2,17,0.6,197.031,M,3.896,M,0.0,*72
$GPGSV,4,1,16,8,35,306,44,10,66,218,48,13,11,28,30,15,33,57,40*4F
$GPGSV,4,2,16,16,10,232,44,20,77,106,40,21,49,114,45,27,59,261,49*76
$GPGSV,4,3,16,32,12,177,43,33,5,248,,36,25,200,45,37,22,211,*41
$GPGSV,4,4,16,38,5,248,,39,23,208,42,40,26,172,,41,19,140,*45
$GLGSV,3,1,9,66,49,282,,70,34,43,26,71,79,126,44,72,34,205,50*65
$GLGSV,3,2,9,78,14,322,42,79,17,3,32,85,12,138,44,86,67,144,48*5E
$GLGSV,3,3,9,87,48,313,45*6F
$GPGSA,A,3,8,10,13,15,16,20,21,27,32,,,,1.1,0.6,0.8*01
$GLGSA,A,3,70,71,72,78,79,85,86,87,,,,,1.1,0.6,0.8*29
$PNVGBSS,307,307,0,,0.0*7F
$GPRMC,135719.00,A,5545.2924416,N,04844.4650254,E,0.72,28.97,190718,0.0,E,D*08
$GPGGA,135719.00,5545.2924416,N,04844.4650254,E,2,17,0.6,197.022,M,3.896,M,0.0,*75
$GPGSV,4,1,16,8,35,306,48,10,66,218,50,13,11,28,44,15,33,57,45*4C
$GPGSV,4,2,16,16,10,232,40,20,77,106,45,21,49,114,46,27,59,261,50*7C
$GPGSV,4,3,16,32,12,177,41,33,5,248,,36,25,200,44,37,22,211,*42
$GPGSV,4,4,16,38,5,248,,39,23,208,39,40,26,172,,41,19,140,*49
$GLGSV,3,1,9,66,49,282,,70,34,43,35,71,79,126,49,72,34,205,49*62
$GLGSV,3,2,9,78,14,322,45,79,17,3,45,85,12,138,44,86,67,144,50*50
$GLGSV,3,3,9,87,48,313,50*6B
$GPGSA,A,3,8,10,13,15,16,20,21,27,32,,,,1.1,0.6,0.8*01
$GLGSA,A,3,70,71,72,78,79,85,86,87,,,,,1.1,0.6,0.8*29
$PNVGBSS,307,307,0,,0.0*7F
$GPRMC,135719.20,A,5545.2923733,N,04844.4650075,E,1.01,28.97,190718,0.0,E,D*0D
$GPGGA,135719.20,5545.2923733,N,04844.4650075,E,2,17,0.6,197.033,M,3.896,M,0.0,*75
$GPGSV,4,1,16,8,35,306,48,10,66,218,50,13,11,28,44,15,33,57,45*4C
$GPGSV,4,2,16,16,10,232,40,20,77,106,45,21,49,114,46,27,59,261,50*7C
$GPGSV,4,3,16,32,12,177,41,33,5,248,,36,25,200,44,37,22,211,*42
$GPGSV,4,4,16,38,5,248,,39,23,208,39,40,26,172,,41,19,140,*49
$GLGSV,3,1,9,66,49,282,,70,34,43,35,71,79,126,49,72,34,205,49*62
$GLGSV,3,2,9,78,14,322,45,79,17,3,45,85,12,138,44,86,67,144,50*50
$GLGSV,3,3,9,87,48,313,50*6B
$GPGSA,A,3,8,10,13,15,16,20,21,27,32,,,,1.1,0.6,0.8*01
$GLGSA,A,3,70,71,72,78,79,85,86,87,,,,,1.1,0.6,0.8*29
$PNVGBSS,308,308,0,,0.0*7F
$GPRMC,135719.40,A,5545.2922865,N,04844.4649494,E,1.41,196.69,190718,0.0,E,D*34
$GPGGA,135719.40,5545.2922865,N,04844.4649494,E,2,17,0.6,197.026,M,3.896,M,0.0,*79
$GPGSV,4,1,16,8,35,306,48,10,66,218,50,13,11,28,44,15,33,57,44*4D
$GPGSV,4,2,16,16,10,232,40,20,77,106,45,21,49,114,46,27,59,261,50*7C
$GPGSV,4,3,16,32,12,177,41,33,5,248,,36,25,200,44,37,22,211,*42
$GPGSV,4,4,16,38,5,248,,39,23,208,39,40,26,172,,41,19,140,*49
$GLGSV,3,1,9,66,49,282,,70,34,43,35,71,79,126,49,72,34,205,49*62
$GLGSV,3,2,9,78,14,322,45,79,17,3,45,85,12,138,44,86,67,144,50*50
$GLGSV,3,3,9,87,48,313,50*6B
$GPGSA,A,3,8,10,13,15,16,20,21,27,32,,,,1.1,0.6,0.8*01
$GLGSA,A,3,70,71,72,78,79,85,86,87,,,,,1.1,0.6,0.8*29
$PNVGBSS,309,309,0,,0.0*7F
$GPRMC,135719.60,A,5545.2922183,N,04844.4649214,E,1.32,196.69,190718,0.0,E,D*3D
$GPGGA,135719.60,5545.2922183,N,04844.4649214,E,2,17,0.6,197.077,M,3.896,M,0.0,*70
$GPGSV,4,1,16,8,35,306,48,10,66,218,50,13,11,28,44,15,33,57,44*4D
$GPGSV,4,2,16,16,10,232,40,20,77,106,45,21,49,114,46,27,59,261,50*7C
$GPGSV,4,3,16,32,12,177,41,33,5,248,,36,25,200,44,37,22,211,*42
$GPGSV,4,4,16,38,5,248,,39,23,208,39,40,26,172,,41,19,140,*49
$GLGSV,3,1,9,66,49,282,,70,34,43,35,71,79,126,49,72,34,205,49*62
$GLGSV,3,2,9,78,14,322,45,79,17,3,45,85,12,138,44,86,67,144,50*50
$GLGSV,3,3,9,87,48,313,50*6B
$GPGSA,A,3,8,10,13,15,16,20,21,27,32,,,,1.1,0.6,0.8*01
$GLGSA,A,3,70,71,72,78,79,85,86,87,,,,,1.1,0.6,0.8*29
$PNVGBSS,309,309,0,,0.0*7F
$GPRMC,135719.80,A,5545.2921036,N,04844.4648985,E,1.83,187.94,190718,0.0,E,D*35
$GPGGA,135719.80,5545.2921036,N,04844.4648985,E,2,17,0.6,197.042,M,3.896,M,0.0,*76
$GPGSV,4,1,16,8,35,306,48,10,66,218,50,13,11,28,44,15,33,57,44*4D
$GPGSV,4,2,16,16,10,232,40,20,77,106,45,21,49,114,46,27,59,261,50*7C
$GPGSV,4,3,16,32,12,177,41,33,5,248,,36,25,200,44,37,22,211,*42
$GPGSV,4,4,16,38,5,248,,39,23,208,39,40,26,172,,41,19,140,*49
$GLGSV,3,1,9,66,49,282,,70,34,43,35,71,79,126,49,72,34,205,49*62
$GLGSV,3,2,9,78,14,322,45,79,17,3,45,85,12,138,44,86,67,144,50*50
$GLGSV,3,3,9,87,48,313,50*6B
$GPGSA,A,3,8,10,13,15,16,20,21,27,32,,,,1.1,0.6,0.8*01
$GLGSA,A,3,70,71,72,78,79,85,86,87,,,,,1.1,0.6,0.8*29
$PNVGBSS,309,309,0,,0.0*7F
$GPRMC,135720.00,A,5545.2919937,N,04844.4648407,E,1.98,193.64,190718,0.0,E,D*33
$GPGGA,135720.00,5545.2919937,N,04844.4648407,E,2,17,0.6,197.064,M,3.896,M,0.0,*74
$GPGSV,4,1,16,8,35,306,49,10,66,218,51,13,11,28,44,15,33,57,46*4F
$GPGSV,4,2,16,16,10,232,40,20,77,106,45,21,49,114,45,27,59,261,49*77
$GPGSV,4,3,16,32,12,177,40,33,5,248,,36,25,200,45,37,22,211,*42
$GPGSV,4,4,16,38,5,248,,39,23,208,39,40,26,172,,41,19,140,*49
$GLGSV,3,1,9,66,49,282,,70,34,43,37,71,79,126,48,72,34,205,48*60
$GLGSV,3,2,9,78,14,322,45,79,17,3,47,85,12,138,43,86,67,144,50*55
$GLGSV,3,3,9,87,48,313,51*6A
$GPGSA,A,3,8,10,13,15,16,20,21,27,32,,,,1.1,0.6,0.8*01
$GLGSA,A,3,70,71,72,78,79,85,86,87,,,,,1.1,0.6,0.8*29
$PNVGBSS,310,310,0,,0.0*7F
$GPRMC,135720.20,A,5545.2919088,N,04844.4648025,E,1.64,190.87,190718,0.0,E,D*35
$GPGGA,135720.20,5545.2919088,N,04844.4648025,E,2,17,0.6,197.079,M,3.896,M,0.0,*73
$GPGSV,4,1,16,8,35,306,49,10,66,218,51,13,11,28,44,15,33,57,46*4F
$GPGSV,4,2,16,16,10,232,40,20,77,106,45,21,49,114,45,27,59,261,49*77
$GPGSV,4,3,16,32,12,177,39,33,5,248,,36,25,200,45,37,22,211,*4C
$GPGSV,4,4,16,38,5,248,,39,23,208,39,40,26,172,,41,19,140,*49
$GLGSV,3,1,9,66,49,282,,70,34,43,37,71,79,126,48,72,34,205,48*60
$GLGSV,3,2,9,78,14,322,45,79,17,3,47,85,12,138,43,86,67,144,50*55
$GLGSV,3,3,9,87,48,313,51*6A
$GPGSA,A,3,8,10,13,15,16,20,21,27,32,,,,1.1,0.6,0.8*01
$GLGSA,A,3,70,71,72,78,79,85,86,87,,,,,1.1,0.6,0.8*29
$PNVGBSS,310,310,0,,0.0*7F
$GPRMC,135720.40,A,5545.2918116,N,04844.4647415,E,1.71,194.62,190718,0.0,E,D*37
$GPGGA,135720.40,5545.2918116,N,04844.4647415,E,2,17,0.6,197.059,M,3.896,M,0.0,*78
$GPGSV,4,1,16,8,35,306,49,10,66,218,51,13,11,28,44,15,33,57,46*4F
$GPGSV,4,2,16,16,10,232,40,20,77,106,45,21,49,114,45,27,59,261,49*77
$GPGSV,4,3,16,32,12,177,40,33,5,248,,36,25,200,45,37,22,211,*42
$GPGSV,4,4,16,38,5,248,,39,23,208,39,40,26,172,,41,19,140,*49
$GLGSV,3,1,9,66,49,282,,70,34,43,37,71,79,126,48,72,34,205,48*60
$GLGSV,3,2,9,78,14,322,45,79,17,3,47,85,12,138,43,86,67,144,50*55
$GLGSV,3,3,9,87,48,313,51*6A
$GPGSA,A,3,8,10,13,15,16,20,21,27,32,,,,1.1,0.6,0.8*01
$GLGSA,A,3,70,71,72,78,79,85,86,87,,,,,1.1,0.6,0.8*29
$PNVGBSS,311,311,0,,0.0*7F
$GPRMC,135720.60,A,5545.2917102,N,04844.4646657,E,1.79,198.34,190718,0.0,E,D*3D
$GPGGA,135720.60,5545.2917102,N,04844.4646657,E,2,17,0.6,197.078,M,3.896,M,0.0,*76
$GPGSV,4,1,16,8,35,306,49,10,66,218,51,13,11,28,44,15,33,57,46*4F
$GPGSV,4,2,16,16,10,232,40,20,77,106,46,21,49,114,45,27,59,261,49*74
$GPGSV,4,3,16,32,12,177,40,33,5,248,,36,25,200,45,37,22,211,*42
$GPGSV,4,4,16,38,5,248,,39,23,208,39,40,26,172,,41,19,140,*49
$GLGSV,3,1,9,66,49,282,,70,34,43,37,71,79,126,48,72,34,205,48*60
$GLGSV,3,2,9,78,14,322,45,79,17,3,47,85,12,138,43,86,67,144,50*55
$GLGSV,3,3,9,87,48,313,51*6A
$GPGSA,A,3,8,10,13,15,16,20,21,27,32,,,,1.1,0.6,0.8*01
$GLGSA,A,3,70,71,72,78,79,85,86,87,,,,,1.1,0.6,0.8*29
$PNVGBSS,311,311,0,,0.0*7F
$GPRMC,135720.80,A,5545.2916135,N,04844.4646087,E,1.73,196.60,190718,0.0,E,D*38
$GPGGA,135720.80,5545.2916135,N,04844.4646087,E,2,17,0.6,197.062,M,3.896,M,0.0,*7D
$GPGSV,4,1,16,8,35,306,49,10,66,218,51,13,11,28,44,15,33,57,46*4F
$GPGSV,4,2,16,16,10,232,40,20,77,106,45,21,49,114,45,27,59,261,49*77
$GPGSV,4,3,16,32,12,177,40,33,5,248,,36,25,200,45,37,22,211,*42
$GPGSV,4,4,16,38,5,248,,39,23,208,39,40,26,172,,41,19,140,*49
$GLGSV,3,1,9,66,49,282,,70,34,43,37,71,79,126,48,72,34,205,48*60
$GLGSV,3,2,9,78,14,322,45,79,17,3,47,85,12,138,43,86,67,144,50*55
$GLGSV,3,3,9,87,48,313,51*6A
$GPGSA,A,3,8,10,13,15,16,20,21,27,32,,,,1.1,0.6,0.8*01
$GLGSA,A,3,70,71,72,78,79,85,86,87,,,,,1.1,0.6,0.8*29
$PNVGBSS,312,312,0,,0.0*7F
$GPRMC,135721.00,A,5545.2915091,N,04844.4645482,E,1.82,196.25,190718,0.0,E,D*30
$GPGGA,135721.00,5545.2915091,N,04844.4645482,E,2,17,0.6,196.948,M,3.896,M,0.0,*7A
$GPGSV,4,1,16,8,35,306,49,10,66,218,51,13,11,28,43,15,33,57,48*46
$GPGSV,4,2,16,16,10,232,40,20,77,106,47,21,49,114,46,27,59,261,49*76
$GPGSV,4,3,16,32,12,177,41,33,5,248,,36,25,200,44,37,22,211,*42
$GPGSV,4,4,16,38,5,248,,39,23,208,40,40,26,172,,41,19,140,*47
$GLGSV,3,1,9,66,49,282,,70,34,43,38,71,79,126,47,72,34,205,48*60
$GLGSV,3,2,9,78,14,322,48,79,17,3,47,85,12,138,45,86,67,144,50*5E
$GLGSV,3,3,9,87,48,313,52*69
$GPGSA,A,3,8,10,13,15,16,20,21,27,32,,,,1.1,0.6,0.8*01
$GLGSA,A,3,70,71,72,78,79,85,86,87,,,,,1.1,0.6,0.8*29
$PNVGBSS,312,312,0,,0.0*7F
$GPRMC,135721.20,A,5545.2914136,N,04844.4645153,E,1.70,191.74,190718,0.0,E,D*38
$GPGGA,135721.20,5545.2914136,N,04844.4645153,E,2,17,0.6,197.087,M,3.896,M,0.0,*77
$GPGSV,4,1,16,8,35,306,49,10,66,218,51,13,11,28,43,15,33,57,48*46
$GPGSV,4,2,16,16,10,232,40,20,77,106,47,21,49,114,46,27,59,261,49*76
$GPGSV,4,3,16,32,12,177,41,33,5,248,,36,25,200,44,37,22,211,*42
$GPGSV,4,4,16,38,5,248,,39,23,208,40,40,26,172,,41,19,140,*47
$GLGSV,3,1,9,66,49,282,,70,34,43,38,71,79,126,47,72,34,205,48*60
$GLGSV,3,2,9,78,14,322,48,79,17,3,47,85,12,138,45,86,67,144,50*5E
$GLGSV,3,3,9,87,48,313,52*69
$GPGSA,A,3,8,10,13,15,16,20,21,27,32,,,,1.1,0.6,0.8*01
$GLGSA,A,3,70,71,72,78,79,85,86,87,,,,,1.1,0.6,0.8*29
$PNVGBSS,312,312,0,,0.0*7F
$GPRMC,135721.40,A,5545.2913210,N,04844.4644723,E,1.65,192.52,190718,0.0,E,D*3D
$GPGGA,135721.40,5545.2913210,N,04844.4644723,E,2,17,0.6,197.110,M,3.896,M,0.0,*7E
$GPGSV,4,1,16,8,35,306,49,10,66,218,51,13,11,28,43,15,33,57,48*46
$GPGSV,4,2,16,16,10,232,40,20,77,106,47,21,49,114,46,27,59,261,49*76
$GPGSV,4,3,16,32,12,177,41,33,5,248,,36,25,200,44,37,22,211,*42
$GPGSV,4,4,16,38,5,248,,39,23,208,40,40,26,172,,41,19,140,*47
$GLGSV,3,1,9,66,49,282,,70,34,43,38,71,79,126,47,72,34,205,48*60
$GLGSV,3,2,9,78,14,322,48,79,17,3,47,85,12,138,45,86,67,144,50*5E
$GLGSV,3,3,9,87,48,313,52*69
$GPGSA,A,3,8,10,13,15,16,20,21,27,32,,,,1.1,0.6,0.8*01
$GLGSA,A,3,70,71,72,78,79,85,86,87,,,,,1.1,0.6,0.8*29
$PNVGBSS,313,313,0,,0.0*7F
$GPRMC,135721.60,A,5545.2912129,N,04844.4643748,E,1.92,201.89,190718,0.0,E,D*3A
$GPGGA,135721.60,5545.2912129,N,04844.4643748,E,2,17,0.6,197.071,M,3.896,M,0.0,*78
$GPGSV,4,1,16,8,35,306,49,10,66,218,51,13,11,28,43,15,33,57,48*46
$GPGSV,4,2,16,16,10,232,40,20,77,106,47,21,49,114,46,27,59,261,49*76
$GPGSV,4,3,16,32,12,177,41,33,5,248,,36,25,200,44,37,22,211,*42
$GPGSV,4,4,16,38,5,248,,39,23,208,40,40,26,172,,41,19,140,*47
$GLGSV,3,1,9,66,49,282,,70,34,43,38,71,79,126,47,72,34,205,48*60
$GLGSV,3,2,9,78,14,322,48,79,17,3,47,85,12,138,45,86,67,144,50*5E
$GLGSV,3,3,9,87,48,313,52*69
$GPGSA,A,3,8,10,13,15,16,20,21,27,32,,,,1.1,0.6,0.8*01
$GLGSA,A,3,70,71,72,78,79,85,86,87,,,,,1.1,0.6,0.8*29
$PNVGBSS,314,314,0,,0.0*7F
$GPRMC,135721.80,A,5545.2911255,N,04844.4642675,E,1.81,209.59,190718,0.0,E,D*36
$GPGGA,135721.80,5545.2911255,N,04844.4642675,E,2,17,0.6,197.069,M,3.896,M,0.0,*7A
$GPGSV,4,1,16,8,35,306,48,10,66,218,51,13,11,28,43,15,33,57,48*47
$GPGSV,4,2,16,16,10,232,40,20,77,106,47,21,49,114,46,27,59,261,49*76
$GPGSV,4,3,16,32,12,177,41,33,5,248,,36,25,200,44,37,22,211,*42
$GPGSV,4,4,16,38,5,248,,39,23,208,40,40,26,172,,41,19,140,*47
$GLGSV,3,1,9,66,49,282,,70,34,43,38,71,79,126,47,72,34,205,48*60
$GLGSV,3,2,9,78,14,322,48,79,17,3,47,85,12,138,45,86,67,144,50*5E
$GLGSV,3,3,9,87,48,313,52*69
$GPGSA,A,3,8,10,13,15,16,20,21,27,32,,,,1.1,0.6,0.8*01
$GLGSA,A,3,70,71,72,78,79,85,86,87,,,,,1.1,0.6,0.8*29
$PNVGBSS,314,314,0,,0.0*7F
$GPRMC,135722.00,A,5545.2910305,N,04844.4641757,E,1.80,207.94,190718,0.0,E,D*34
$GPGGA,135722.00,5545.2910305,N,04844.4641757,E,2,17,0.6,197.041,M,3.896,M,0.0,*7C
$GPGSV,4,1,16,8,35,306,47,10,66,218,51,13,11,28,43,15,33,57,47*47
$GPGSV,4,2,16,16,10,232,41,20,77,106,46,21,49,114,47,27,59,261,49*77
$GPGSV,4,3,16,32,12,177,43,33,5,248,,36,25,200,45,37,22,211,*41
$GPGSV,4,4,16,38,5,248,,39,23,208,41,40,26,172,,41,19,140,*46
$GLGSV,3,1,9,66,49,282,,70,34,43,39,71,79,126,48,72,34,205,48*6E
$GLGSV,3,2,9,78,14,322,47,79,17,3,47,85,12,138,46,86,67,144,50*52
$GLGSV,3,3,9,87,48,313,51*6A
$GPGSA,A,3,8,10,13,15,16,20,21,27,32,,,,1.1,0.6,0.8*01
$GLGSA,A,3,70,71,72,78,79,85,86,87,,,,,1.1,0.6,0.8*29
$PNVGBSS,315,315,0,,0.0*7F
$GPRMC,135722.20,A,5545.2909253,N,04844.4640871,E,1.87,204.43,190718,0.0,E,D*38
$GPGGA,135722.20,5545.2909253,N,04844.4640871,E,2,17,0.6,197.011,M,3.896,M,0.0,*7B
$GPGSV,5,1,17,8,35,305,47,10,66,218,51,13,11,28,43,15,33,57,47*44
$GPGSV,5,2,17,16,10,232,41,20,77,105,46,21,49,114,47,24,5,92,*7D
$GPGSV,5,3,17,27,59,261,49,32,12,177,43,33,5,248,,36,25,200,45*46
$GPGSV,5,4,17,37,22,211,,38,5,248,,39,23,208,41,40,26,172,*48
$GPGSV,5,5,17,41,19,140,*47
$GLGSV,3,1,9,66,49,282,,70,34,43,39,71,79,125,48,72,34,205,48*6D
$GLGSV,3,2,9,78,14,322,47,79,17,3,47,85,11,138,46,86,67,145,50*50
$GLGSV,3,3,9,87,48,313,51*6A
$GPGSA,A,3,8,10,13,15,16,20,21,27,32,,,,1.1,0.6,0.8*01
$GLGSA,A,3,70,71,72,78,79,85,86,87,,,,,1.1,0.6,0.8*29
$PNVGBSS,315,315,0,,0.0*7F
$GPRMC,135722.40,A,5545.2908321,N,04844.4640018,E,1.77,204.54,190718,0.0,E,D*35
$GPGGA,135722.40,5545.2908321,N,04844.4640018,E,2,17,0.6,197.020,M,3.896,M,0.0,*7D
$GPGSV,5,1,17,8,35,305,47,10,66,218,51,13,11,28,43,15,33,57,47*44
$GPGSV,5,2,17,16,10,232,41,20,77,105,46,21,49,114,47,24,5,92,*7D
$GPGSV,5,3,17,27,59,261,49,32,12,177,43,33,5,248,,36,25,200,45*46
$GPGSV,5,4,17,37,22,211,,38,5,248,,39,23,208,41,40,26,172,*48
$GPGSV,5,5,17,41,19,140,*47
$GLGSV,3,1,9,66,49,282,,70,34,43,39,71,79,125,48,72,34,205,48*6D
$GLGSV,3,2,9,78,14,322,47,79,17,3,47,85,11,138,46,86,67,145,50*50
$GLGSV,3,3,9,87,48,313,52*69
$GPGSA,A,3,8,10,13,15,16,20,21,27,32,,,,1.1,0.6,0.8*01
$GLGSA,A,3,70,71,72,78,79,85,86,87,,,,,1.1,0.6,0.8*29
$PNVGBSS,316,316,0,,0.0*7F
$GPRMC,135722.60,A,5545.2907495,N,04844.4639302,E,1.60,203.72,190718,0.0,E,D*33
$GPGGA,135722.60,5545.2907495,N,04844.4639302,E,2,17,0.6,196.973,M,3.896,M,0.0,*70
$GPGSV,5,1,17,8,35,305,47,10,66,218,51,13,11,28,43,15,33,57,47*44
$GPGSV,5,2,17,16,10,232,41,20,77,105,46,21,49,114,47,24,5,92,*7D
$GPGSV,5,3,17,27,59,261,49,32,12,177,43,33,5,248,,36,25,200,45*46
$GPGSV,5,4,17,37,22,211,,38,5,248,,39,23,208,41,40,26,172,*48
$GPGSV,5,5,17,41,19,140,*47
$GLGSV,3,1,9,66,49,282,,70,34,43,39,71,79,125,48,72,34,205,48*6D
$GLGSV,3,2,9,78,14,322,47,79,17,3,47,85,11,138,46,86,67,145,50*50
$GLGSV,3,3,9,87,48,313,52*69
$GPGSA,A,3,8,10,13,15,16,20,21,27,32,,,,1.1,0.6,0.8*01
$GLGSA,A,3,70,71,72,78,79,85,86,87,,,,,1.1,0.6,0.8*29
$PNVGBSS,316,316,0,,0.0*7F
$GPRMC,135722.80,A,5545.2906733,N,04844.4638510,E,1.51,206.41,190718,0.0,E,D*30
$GPGGA,135722.80,5545.2906733,N,04844.4638510,E,2,17,0.6,196.941,M,3.896,M,0.0,*75
$GPGSV,5,1,17,8,35,305,47,10,66,218,51,13,11,28,43,15,33,57,47*44
$GPGSV,5,2,17,16,10,232,41,20,77,105,46,21,49,114,47,24,5,92,*7D
$GPGSV,5,3,17,27,59,261,49,32,12,177,43,33,5,248,,36,25,200,45*46
$GPGSV,5,4,17,37,22,211,,38,5,248,,39,23,208,41,40,26,172,*48
$GPGSV,5,5,17,41,19,140,*47
$GLGSV,3,1,9,66,49,282,,70,34,43,39,71,79,125,48,72,34,205,48*6D
$GLGSV,3,2,9,78,14,322,47,79,17,3,47,85,11,138,46,86,67,145,50*50
$GLGSV,3,3,9,87,48,313,52*69
$GPGSA,A,3,8,10,13,15,16,20,21,27,32,,,,1.1,0.6,0.8*01
$GLGSA,A,3,70,71,72,78,79,85,86,87,,,,,1.1,0.6,0.8*29
$PNVGBSS,317,317,0,,0.0*7F
$GPRMC,135723.00,A,5545.2905970,N,04844.4637859,E,1.47,203.49,190718,0.0,E,D*36
$GPGGA,135723.00,5545.2905970,N,04844.4637859,E,2,17,0.6,196.927,M,3.896,M,0.0,*79
$GPGSV,5,1,17,8,35,305,45,10,66,218,51,13,11,28,46,15,33,57,47*43
$GPGSV,5,2,17,16,10,232,39,20,77,105,47,21,49,114,46,24,5,92,*72
$GPGSV,5,3,17,27,59,261,49,32,12,177,44,33,5,248,,36,25,200,43*47
$GPGSV,5,4,17,37,22,211,,38,5,248,,39,23,208,41,40,26,172,*48
$GPGSV,5,5,17,41,19,140,*47
$GLGSV,3,1,9,66,49,282,,70,34,43,40,71,79,125,48,72,34,205,47*6C
$GLGSV,3,2,9,78,14,322,44,79,17,3,45,85,11,138,46,86,67,145,49*59
$GLGSV,3,3,9,87,48,313,51*6A
$GPGSA,A,3,8,10,13,15,16,20,21,27,32,,,,1.1,0.6,0.8*01
$GLGSA,A,3,70,71,72,78,79,85,86,87,,,,,1.1,0.6,0.8*29
$PNVGBSS,317,317,0,,0.0*7F
$GPRMC,135723.20,A,5545.2905664,N,04844.4636926,E,1.12,203.49,190718,0.0,E,D*36
$GPGGA,135723.20,5545.2905664,N,04844.4636926,E,2,17,0.6,196.920,M,3.896,M,0.0,*7E
$GPGSV,5,1,17,8,35,305,45,10,66,218,51,13,11,28,45,15,33,57,47*40
$GPGSV,5,2,17,16,10,232,39,20,77,105,46,21,49,114,46,24,5,92,*73
$GPGSV,5,3,17,27,59,261,49,32,12,177,44,33,5,248,,36,25,200,43*47
$GPGSV,5,4,17,37,22,211,,38,5,248,,39,23,208,41,40,26,172,*48
$GPGSV,5,5,17,41,19,140,*47
$GLGSV,3,1,9,66,49,282,,70,34,43,40,71,79,125,48,72,34,205,47*6C
$GLGSV,3,2,9,78,14,322,44,79,17,3,45,85,11,138,46,86,67,145,49*59
$GLGSV,3,3,9,87,48,313,51*6A
$GPGSA,A,3,8,10,13,15,16,20,21,27,32,,,,1.1,0.6,0.8*01
$GLGSA,A,3,70,71,72,78,79,85,86,87,,,,,1.1,0.6,0.8*29
$PNVGBSS,317,317,0,,0.0*7F
$GPRMC,135723.40,A,5545.2905637,N,04844.4635911,E,0.99,203.49,190718,0.0,E,D*33
$GPGGA,135723.40,5545.2905637,N,04844.4635911,E,2,17,0.6,196.923,M,3.896,M,0.0,*7A
$GPGSV,5,1,17,8,35,305,45,10,66,218,51,13,11,28,45,15,33,57,47*40
$GPGSV,5,2,17,16,10,232,39,20,77,105,46,21,49,114,46,24,5,92,*73
$GPGSV,5,3,17,27,59,261,49,32,12,177,44,33,5,248,,36,25,200,43*47
$GPGSV,5,4,17,37,22,211,,38,5,248,,39,23,208,41,40,26,172,*48
$GPGSV,5,5,17,41,19,140,*47
$GLGSV,3,1,9,66,49,282,,70,34,43,40,71,79,125,48,72,34,205,47*6C
$GLGSV,3,2,9,78,14,322,44,79,17,3,45,85,11,138,46,86,67,145,49*59
$GLGSV,3,3,9,87,48,313,51*6A
$GPGSA,A,3,8,10,13,15,16,20,21,27,32,,,,1.1,0.6,0.8*01
$GLGSA,A,3,70,71,72,78,79,85,86,87,,,,,1.1,0.6,0.8*29
$PNVGBSS,318,318,0,,0.0*7F
$GPRMC,135723.60,A,5545.2905625,N,04844.4634995,E,0.94,203.49,190718,0.0,E,D*32
$GPGGA,135723.60,5545.2905625,N,04844.4634995,E,2,17,0.6,196.917,M,3.896,M,0.0,*71
$GPGSV,5,1,17,8,35,305,45,10,66,218,51,13,11,28,45,15,33,57,47*40
$GPGSV,5,2,17,16,10,232,39,20,77,105,46,21,49,114,46,24,5,92,*73
$GPGSV,5,3,17,27,59,261,49,32,12,177,44,33,5,248,,36,25,200,43*47
$GPGSV,5,4,17,37,22,211,,38,5,248,,39,23,208,41,40,26,172,*48
$GPGSV,5,5,17,41,19,140,*47
$GLGSV,3,1,9,66,49,282,,70,34,43,40,71,79,125,48,72,34,205,47*6C
$GLGSV,3,2,9,78,14,322,44,79,17,3,45,85,11,138,46,86,67,145,49*59
$GLGSV,3,3,9,87,48,313,51*6A
$GPGSA,A,3,8,10,13,15,16,20,21,27,32,,,,1.1,0.6,0.8*01
$GLGSA,A,3,70,71,72,78,79,85,86,87,,,,,1.1,0.6,0.8*29
$PNVGBSS,318,318,0,,0.0*7F
$GPRMC,135723.80,A,5545.2906013,N,04844.4634721,E,0.72,203.49,190718,0.0,E,D*35
$GPGGA,135723.80,5545.2906013,N,04844.4634721,E,2,17,0.6,196.929,M,3.896,M,0.0,*73
$GPGSV,5,1,17,8,35,305,45,10,66,218,51,13,11,28,45,15,33,57,47*40
$GPGSV,5,2,17,16,10,232,39,20,77,105,46,21,49,114,46,24,5,92,*73
$GPGSV,5,3,17,27,59,261,49,32,12,177,44,33,5,248,,36,25,200,43*47
$GPGSV,5,4,17,37,22,211,,38,5,248,,39,23,208,41,40,26,172,*48
$GPGSV,5,5,17,41,19,140,*47
$GLGSV,3,1,9,66,49,282,,70,34,43,40,71,79,125,48,72,34,205,47*6C
$GLGSV,3,2,9,78,14,322,44,79,17,3,45,85,11,138,46,86,67,145,49*59
$GLGSV,3,3,9,87,48,313,51*6A
$GPGSA,A,3,8,10,13,15,16,20,21,27,32,,,,1.1,0.6,0.8*01
$GLGSA,A,3,70,71,72,78,79,85,86,87,,,,,1.1,0.6,0.8*29
$PNVGBSS,318,318,0,,0.0*7F
$GPRMC,135724.00,A,5545.2906237,N,04844.4634597,E,0.56,203.49,190718,0.0,E,D*37
$GPGGA,135724.00,5545.2906237,N,04844.4634597,E,2,17,0.6,196.949,M,3.896,M,0.0,*71
$GPGSV,5,1,17,8,35,305,46,10,66,218,50,13,11,28,45,15,33,57,50*44
$GPGSV,5,2,17,16,10,232,42,20,77,105,46,21,49,114,46,24,5,92,*7F
$GPGSV,5,3,17,27,59,261,51,32,12,177,43,33,5,248,,36,25,200,41*4B
$GPGSV,5,4,17,37,22,211,,38,5,248,,39,23,208,43,40,26,172,*4A
$GPGSV,5,5,17,41,19,140,*47
$GLGSV,3,1,9,66,49,282,,70,34,43,39,71,79,125,50,72,34,205,48*64
$GLGSV,3,2,9,78,14,322,44,79,17,3,44,85,11,138,46,86,67,145,49*58
$GLGSV,3,3,9,87,48,313,49*63
$GPGSA,A,3,8,10,13,15,16,20,21,27,32,,,,1.1,0.6,0.8*01
$GLGSA,A,3,70,71,72,78,79,85,86,87,,,,,1.1,0.6,0.8*29
$PNVGBSS,319,319,0,,0.0*7F
$GPRMC,135724.20,A,5545.2906519,N,04844.4634143,E,0.66,203.49,190718,0.0,E,D*30
$GPGGA,135724.20,5545.2906519,N,04844.4634143,E,2,17,0.6,196.921,M,3.896,M,0.0,*7B
$GPGSV,5,1,17,8,35,305,46,10,66,218,50,13,11,28,45,15,33,57,50*44
$GPGSV,5,2,17,16,10,232,42,20,77,105,46,21,49,114,46,24,5,92,*7F
$GPGSV,5,3,17,27,59,261,51,32,12,177,43,33,5,248,,36,25,200,41*4B
$GPGSV,5,4,17,37,22,211,,38,5,248,,39,23,208,43,40,26,172,*4A
$GPGSV,5,5,17,41,19,140,*47
$GLGSV,3,1,9,66,49,282,,70,34,43,39,71,79,125,50,72,34,205,48*64
$GLGSV,3,2,9,78,14,322,44,79,17,3,44,85,11,138,46,86,67,145,49*58
$GLGSV,3,3,9,87,48,313,49*63
$GPGSA,A,3,8,10,13,15,16,20,21,27,32,,,,1.1,0.6,0.8*01
$GLGSA,A,3,70,71,72,78,79,85,86,87,,,,,1.1,0.6,0.8*29
$PNVGBSS,319,319,0,,0.0*7F
$GPRMC,135724.40,A,5545.2906731,N,04844.4632920,E,1.05,203.49,190718,0.0,E,D*31
$GPGGA,135724.40,5545.2906731,N,04844.4632920,E,2,17,0.6,196.861,M,3.896,M,0.0,*7B
$GPGSV,5,1,17,8,35,305,46,10,66,218,50,13,11,28,45,15,33,57,50*44
$GPGSV,5,2,17,16,10,232,42,20,77,105,46,21,49,114,46,24,5,92,*7F
$GPGSV,5,3,17,27,59,261,51,32,12,177,43,33,5,248,,36,25,200,41*4B
$GPGSV,5,4,17,37,22,211,,38,5,248,,39,23,208,43,40,26,172,*4A
$GPGSV,5,5,17,41,19,140,*47
$GLGSV,3,1,9,66,49,282,,70,34,43,39,71,79,125,50,72,34,205,48*64
$GLGSV,3,2,9,78,14,322,44,79,17,3,44,85,11,138,46,86,67,145,49*58
$GLGSV,3,3,9,87,48,313,49*63
$GPGSA,A,3,8,10,13,15,16,20,21,27,32,,,,1.1,0.6,0.8*01
$GLGSA,A,3,70,71,72,78,79,85,86,87,,,,,1.1,0.6,0.8*29
$PNVGBSS,319,319,0,,0.0*7F
$GPRMC,135724.60,A,5545.2906747,N,04844.4631716,E,1.14,203.49,190718,0.0,E,D*3A
$GPGGA,135724.60,5545.2906747,N,04844.4631716,E,2,17,0.6,196.814,M,3.896,M,0.0,*72
$GPGSV,5,1,17,8,35,305,46,10,66,218,50,13,11,28,45,15,33,57,50*44
$GPGSV,5,2,17,16,10,232,42,20,77,105,46,21,49,114,46,24,5,92,*7F
$GPGSV,5,3,17,27,59,261,51,32,12,177,43,33,5,248,,36,25,200,41*4B
$GPGSV,5,4,17,37,22,211,,38,5,248,,39,23,208,43,40,26,172,*4A
$GPGSV,5,5,17,41,19,140,*47
$GLGSV,3,1,9,66,49,282,,70,34,43,39,71,79,125,50,72,34,205,48*64
$GLGSV,3,2,9,78,14,322,44,79,17,3,44,85,11,138,46,86,67,145,49*58
$GLGSV,3,3,9,87,48,313,49*63
$GPGSA,A,3,8,10,13,15,16,20,21,27,32,,,,1.1,0.6,0.8*01
$GLGSA,A,3,70,71,72,78,79,85,86,87,,,,,1.1,0.6,0.8*29
$PNVGBSS,320,320,0,,0.0*7F
$GPRMC,135724.80,A,5545.2906786,N,04844.4630281,E,1.34,203.49,190718,0.0,E,D*31
$GPGGA,135724.80,5545.2906786,N,04844.4630281,E,2,17,0.6,196.816,M,3.896,M,0.0,*79
$GPGSV,5,1,17,8,35,305,46,10,66,218,50,13,11,28,45,15,33,57,50*44
$GPGSV,5,2,17,16,10,232,43,20,77,105,46,21,49,114,46,24,5,92,*7E
$GPGSV,5,3,17,27,59,261,51,32,12,177,43,33,5,248,,36,25,200,41*4B
$GPGSV,5,4,17,37,22,211,,38,5,248,,39,23,208,43,40,26,172,*4A
$GPGSV,5,5,17,41,19,140,*47
$GLGSV,3,1,9,66,49,282,,70,34,43,39,71,79,125,50,72,34,205,48*64
$GLGSV,3,2,9,78,14,322,44,79,17,3,44,85,11,138,46,86,67,145,49*58
$GLGSV,3,3,9,87,48,313,49*63
$GPGSA,A,3,8,10,13,15,16,20,21,27,32,,,,1.1,0.6,0.8*01
$GLGSA,A,3,70,71,72,78,79,85,86,87,,,,,1.1,0.6,0.8*29
$PNVGBSS,320,320,0,,0.0*7F
$GPRMC,135725.00,A,5545.2907093,N,04844.4629122,E,1.29,203.49,190718,0.0,E,D*34
$GPGGA,135725.00,5545.2907093,N,04844.4629122,E,2,17,0.6,196.809,M,3.896,M,0.0,*7E
$GPGSV,5,1,17,8,35,305,48,10,66,218,49,13,11,28,42,15,33,57,48*4C
$GPGSV,5,2,17,16,10,232,43,20,77,105,46,21,49,114,48,24,5,92,*70
$GPGSV,5,3,17,27,59,261,49,32,12,177,44,33,5,248,,36,25,200,43*47
$GPGSV,5,4,17,37,22,211,,38,5,248,,39,23,208,40,40,26,172,*49
$GPGSV,5,5,17,41,19,140,*47
$GLGSV,3,1,9,66,49,282,,70,34,43,38,71,79,125,50,72,34,205,49*64
$GLGSV,3,2,9,78,14,322,41,79,17,3,42,85,11,138,46,86,67,145,52*51
$GLGSV,3,3,9,87,48,313,51*6A
$GPGSA,A,3,8,10,13,15,16,20,21,27,32,,,,1.1,0.6,0.8*01
$GLGSA,A,3,70,71,72,78,79,85,86,87,,,,,1.1,0.6,0.8*29
$PNVGBSS,320,320,0,,0.0*7F
$GPRMC,135725.20,A,5545.2907293,N,04844.4627986,E,1.21,203.49,190718,0.0,E,D*34
$GPGGA,135725.20,5545.2907293,N,04844.4627986,E,2,17,0.6,196.801,M,3.896,M,0.0,*7E
$GPGSV,5,1,17,8,35,305,48,10,66,218,49,13,11,28,42,15,33,57,48*4C
$GPGSV,5,2,17,16,10,232,43,20,77,105,46,21,49,114,48,24,5,92,*70
$GPGSV,5,3,17,27,59,261,49,32,12,177,44,33,5,248,,36,25,200,43*47
$GPGSV,5,4,17,37,22,211,,38,5,248,,39,23,208,40,40,26,172,*49
$GPGSV,5,5,17,41,19,140,*47
$GLGSV,3,1,9,66,49,282,,70,34,43,38,71,79,125,50,72,34,205,49*64
$GLGSV,3,2,9,78,14,322,41,79,17,3,42,85,11,138,46,86,67,145,52*51
$GLGSV,3,3,9,87,48,313,51*6A
$GPGSA,A,3,8,10,13,15,16,20,21,27,32,,,,1.1,0.6,0.8*01
$GLGSA,A,3,70,71,72,78,79,85,86,87,,,,,1.1,0.6,0.8*29
$PNVGBSS,321,321,0,,0.0*7F
$GPRMC,135725.40,A,5545.2907582,N,04844.4626778,E,1.26,203.49,190718,0.0,E,D*3C
$GPGGA,135725.40,5545.2907582,N,04844.4626778,E,2,17,0.6,196.805,M,3.896,M,0.0,*75
$GPGSV,5,1,17,8,35,305,48,10,66,218,49,13,11,28,42,15,33,57,48*4C
$GPGSV,5,2,17,16,10,232,43,20,77,105,46,21,49,114,48,24,5,92,*70
$GPGSV,5,3,17,27,59,261,49,32,12,177,44,33,5,248,,36,25,200,43*47
$GPGSV,5,4,17,37,22,211,,38,5,248,,39,23,208,40,40,26,172,*49
$GPGSV,5,5,17,41,19,140,*47
$GLGSV,3,1,9,66,49,282,,70,34,43,38,71,79,125,50,72,34,205,49*64
$GLGSV,3,2,9,78,14,322,41,79,17,3,42,85,11,138,46,86,67,145,52*51
$GLGSV,3,3,9,87,48,313,51*6A
$GPGSA,A,3,8,10,13,15,16,20,21,27,32,,,,1.1,0.6,0.8*01
$GLGSA,A,3,70,71,72,78,79,85,86,87,,,,,1.1,0.6,0.8*29
$PNVGBSS,321,321,0,,0.0*7F
$GPRMC,135725.60,A,5545.2907842,N,04844.4625601,E,1.24,203.49,190718,0.0,E,D*31
$GPGGA,135725.60,5545.2907842,N,04844.4625601,E,2,17,0.6,196.858,M,3.896,M,0.0,*72
$GPGSV,5,1,17,8,35,305,48,10,66,218,49,13,11,28,42,15,33,57,48*4C
$GPGSV,5,2,17,16,10,232,42,20,77,105,46,21,49,114,48,24,5,92,*71
$GPGSV,5,3,17,27,59,261,49,32,12,177,44,33,5,248,,36,25,200,43*47
$GPGSV,5,4,17,37,22,211,,38,5,248,,39,23,208,40,40,26,172,*49
$GPGSV,5,5,17,41,19,140,*47
$GLGSV,3,1,9,66,49,282,,70,34,43,38,71,79,125,50,72,34,205,49*64
$GLGSV,3,2,9,78,14,322,41,79,17,3,42,85,11,138,46,86,67,145,52*51
$GLGSV,3,3,9,87,48,313,51*6A
$GPGSA,A,3,8,10,13,15,16,20,21,27,32,,,,1.1,0.6,0.8*01
$GLGSA,A,3,70,71,72,78,79,85,86,87,,,,,1.1,0.6,0.8*29
$PNVGBSS,321,321,0,,0.0*7F
$GPRMC,135725.80,A,5545.2908034,N,04844.4624329,E,1.27,203.49,190718,0.0,E,D*34
$GPGGA,135725.80,5545.2908034,N,04844.4624329,E,2,17,0.6,196.843,M,3.896,M,0.0,*7E
$GPGSV,5,1,17,8,35,305,48,10,66,218,49,13,11,28,42,15,33,57,48*4C
$GPGSV,5,2,17,16,10,232,42,20,77,105,46,21,49,114,48,24,5,92,*71
$GPGSV,5,3,17,27,59,261,49,32,12,177,44,33,5,248,,36,25,200,43*47
$GPGSV,5,4,17,37,22,211,,38,5,248,,39,23,208,40,40,26,172,*49
$GPGSV,5,5,17,41,19,140,*47
$GLGSV,3,1,9,66,49,282,,70,34,43,38,71,79,125,50,72,34,205,49*64
$GLGSV,3,2,9,78,14,322,41,79,17,3,42,85,11,138,46,86,67,145,52*51
$GLGSV,3,3,9,87,48,313,51*6A
$GPGSA,A,3,8,10,13,15,16,20,21,27,32,,,,1.1,0.6,0.8*01
$GLGSA,A,3,70,71,72,78,79,85,86,87,,,,,1.1,0.6,0.8*29
$PNVGBSS,322,322,0,,0.0*7F
$GPRMC,135726.00,A,5545.2908134,N,04844.4623071,E,1.25,203.49,190718,0.0,E,D*35
$GPGGA,135726.00,5545.2908134,N,04844.4623071,E,2,17,0.6,196.817,M,3.896,M,0.0,*7C
$GPGSV,5,1,17,8,35,305,47,10,66,218,50,13,11,28,42,15,33,57,49*4A
$GPGSV,5,2,17,16,10,232,43,20,77,105,46,21,49,114,48,24,5,92,*70
$GPGSV,5,3,17,27,59,261,50,32,12,177,44,33,5,248,,36,25,200,43*4F
$GPGSV,5,4,17,37,22,211,,38,5,248,,39,23,208,41,40,26,172,*48
$GPGSV,5,5,17,41,19,140,*47
$GLGSV,3,1,9,66,49,282,,70,34,43,38,71,79,125,49,72,34,205,47*62
$GLGSV,3,2,9,78,14,322,37,79,17,3,43,85,11,138,46,86,67,145,52*51
$GLGSV,3,3,9,87,48,313,49*63
$GPGSA,A,3,8,10,13,15,16,20,21,27,32,,,,1.1,0.6,0.8*01
$GLGSA,A,3,70,71,72,78,79,85,86,87,,,,,1.1,0.6,0.8*29
$PNVGBSS,322,322,0,,0.0*7F
$GPRMC,135726.20,A,5545.2908220,N,04844.4621929,E,1.18,203.49,190718,0.0,E,D*39
$GPGGA,135726.20,5545.2908220,N,04844.4621929,E,2,17,0.6,196.843,M,3.896,M,0.0,*7F
$GPGSV,5,1,17,8,35,305,47,10,66,218,50,13,11,28,42,15,33,57,49*4A
$GPGSV,5,2,17,16,10,232,43,20,77,105,46,21,49,114,48,24,5,92,*70
$GPGSV,5,3,17,27,59,261,50,32,12,177,44,33,5,248,,36,25,200,43*4F
$GPGSV,5,4,17,37,22,211,,38,5,248,,39,23,208,41,40,26,172,*48
$GPGSV,5,5,17,41,19,140,*47
$GLGSV,3,1,9,66,49,282,,70,34,43,38,71,79,125,49,72,34,205,47*62
$GLGSV,3,2,9,78,14,322,37,79,17,3,43,85,11,138,46,86,67,145,52*51
$GLGSV,3,3,9,87,48,313,49*63
$GPGSA,A,3,8,10,13,15,16,20,21,27,32,,,,1.1,0.6,0.8*01
$GLGSA,A,3,70,71,72,78,79,85,86,87,,,,,1.1,0.6,0.8*29
$PNVGBSS,323,323,0,,0.0*7F
$GPRMC,135726.40,A,5545.2908327,N,04844.4620847,E,1.12,203.49,190718,0.0,E,D*3B
$GPGGA,135726.40,5545.2908327,N,04844.4620847,E,2,17,0.6,196.817,M,3.896,M,0.0,*76
$GPGSV,5,1,17,8,35,305,47,10,66,218,50,13,11,28,42,15,33,57,49*4A
$GPGSV,5,2,17,16,10,232,43,20,77,105,46,21,49,114,48,24,5,92,*70
$GPGSV,5,3,17,27,59,261,50,32,12,177,44,33,5,248,,36,25,200,43*4F
$GPGSV,5,4,17,37,22,211,,38,5,248,,39,23,208,41,40,26,172,*48
$GPGSV,5,5,17,41,19,140,*47
$GLGSV,3,1,9,66,49,282,,70,34,43,38,71,79,125,49,72,34,205,47*62
$GLGSV,3,2,9,78,14,322,37,79,17,3,43,85,11,138,46,86,67,145,52*51
$GLGSV,3,3,9,87,48,313,49*63
$GPGSA,A,3,8,10,13,15,16,20,21,27,32,,,,1.1,0.6,0.8*01
$GLGSA,A,3,70,71,72,78,79,85,86,87,,,,,1.1,0.6,0.8*29
$PNVGBSS,324,324,0,,0.0*7F
$GPRMC,135726.60,A,5545.2908817,N,04844.4620558,E,0.86,203.49,190718,0.0,E,D*3E
$GPGGA,135726.60,5545.2908817,N,04844.4620558,E,2,17,0.6,196.811,M,3.896,M,0.0,*79
$GPGSV,5,1,17,8,35,305,47,10,66,218,50,13,11,28,42,15,33,57,49*4A
$GPGSV,5,2,17,16,10,232,43,20,77,105,46,21,49,114,48,24,5,92,*70
$GPGSV,5,3,17,27,59,261,50,32,12,177,44,33,5,248,,36,25,200,43*4F
$GPGSV,5,4,17,37,22,211,,38,5,248,,39,23,208,41,40,26,172,*48
$GPGSV,5,5,17,41,19,140,*47
$GLGSV,3,1,9,66,49,282,,70,34,43,38,71,79,125,49,72,34,205,47*62
$GLGSV,3,2,9,78,14,322,37,79,17,3,43,85,11,138,46,86,67,145,52*51
$GLGSV,3,3,9,87,48,313,49*63
$GPGSA,A,3,8,10,13,15,16,20,21,27,32,,,,1.1,0.6,0.8*01
$GLGSA,A,3,70,71,72,78,79,85,86,87,,,,,1.1,0.6,0.8*29
$PNVGBSS,324,324,0,,0.0*7F
$GPRMC,135726.80,A,5545.2909303,N,04844.4620675,E,0.82,203.49,190718,0.0,E,D*37
$GPGGA,135726.80,5545.2909303,N,04844.4620675,E,2,17,0.6,196.804,M,3.896,M,0.0,*70
$GPGSV,5,1,17,8,35,305,47,10,66,218,50,13,11,28,42,15,33,57,49*4A
$GPGSV,5,2,17,16,10,232,43,20,77,105,46,21,49,114,48,24,5,92,*70
$GPGSV,5,3,17,27,59,261,50,32,12,177,44,33,5,248,,36,25,200,43*4F
$GPGSV,5,4,17,37,22,211,,38,5,248,,39,23,208,41,40,26,172,*48
$GPGSV,5,5,17,41,19,140,*47
$GLGSV,3,1,9,66,49,282,,70,34,43,38,71,79,125,49,72,34,205,47*62
$GLGSV,3,2,9,78,14,322,38,79,17,3,43,85,11,138,46,86,67,145,52*5E
$GLGSV,3,3,9,87,48,313,49*63
$GPGSA,A,3,8,10,13,15,16,20,21,27,32,,,,1.1,0.6,0.8*01
$GLGSA,A,3,70,71,72,78,79,85,86,87,,,,,1.1,0.6,0.8*29
$PNVGBSS,325,325,0,,0.0*7F
