$GPRMC,122421.00,A,5545.3093708,N,04844.4029676,E,0.00,294.67,200718,0.0,E,D*37
$GPGGA,122421.00,5545.3093708,N,04844.4029676,E,2,19,0.6,194.460,M,3.898,M,0.0,*7E
$GPGSV,5,1,18,7,7,347,44,10,24,210,48,13,27,62,43,15,33,104,49*44
$GPGSV,5,2,18,16,39,264,47,20,51,202,48,21,87,131,46,26,26,233,49*71
$GPGSV,5,3,18,27,32,304,46,29,22,141,42,33,5,248,35,36,25,200,*43
$GPGSV,5,4,18,37,22,211,,38,5,248,,39,23,208,,40,26,172,*42
$GPGSV,5,5,18,41,19,140,,45,15,129,*77
$GLGSV,3,1,9,70,28,35,36,71,64,98,50,72,34,175,48,77,11,264,41*58
$GLGSV,3,2,9,78,23,313,42,79,16,355,49,86,57,106,51,87,57,310,54*52
$GLGSV,3,3,9,88,10,301,45*6E
$GPGSA,A,3,7,10,13,15,16,20,21,26,27,29,,,1.4,0.6,1.0*0C
$GLGSA,A,3,70,71,72,77,78,79,86,87,88,,,,1.4,0.6,1.0*28
$PNVGBLS,122421.00,0.058,-0.178,-0.018,0.188,287.91,-5.47,R*0D
$PNVGBSS,1694,1694,0,,0.0*7F
$GPRMC,122421.20,A,5545.3093726,N,04844.4029656,E,0.02,294.67,200718,0.0,E,D*39
$GPGGA,122421.20,5545.3093726,N,04844.4029656,E,2,19,0.6,194.464,M,3.898,M,0.0,*76
$GPGSV,5,1,18,7,7,347,44,10,24,210,48,13,27,62,43,15,33,104,49*44
$GPGSV,5,2,18,16,39,264,47,20,51,202,48,21,87,131,46,26,26,233,49*71
$GPGSV,5,3,18,27,32,304,46,29,22,141,42,33,5,248,35,36,25,200,*43
$GPGSV,5,4,18,37,22,211,,38,5,248,,39,23,208,,40,26,172,*42
$GPGSV,5,5,18,41,19,140,,45,15,129,*77
$GLGSV,3,1,9,70,28,35,36,71,64,98,50,72,34,175,48,77,11,264,41*58
$GLGSV,3,2,9,78,23,313,42,79,16,355,49,86,57,106,51,87,57,310,54*52
$GLGSV,3,3,9,88,10,301,45*6E
$GPGSA,A,3,7,10,13,15,16,20,21,26,27,29,,,1.4,0.6,1.0*0C
$GLGSA,A,3,70,71,72,77,78,79,86,87,88,,,,1.4,0.6,1.0*28
$PNVGBLS,122421.20,0.057,-0.179,-0.016,0.188,287.78,-5.01,R*0A
$PNVGBSS,1694,1694,0,,0.0*7F
$PNVGVER,NVS,RTA,0027,CSM24,P312*50
$GPRMC,122421.40,A,5545.3093726,N,04844.4029651,E,0.01,294.67,200718,0.0,E,D*3B
$GPGGA,122421.40,5545.3093726,N,04844.4029651,E,2,19,0.6,194.466,M,3.898,M,0.0,*75
$GPGSV,5,1,18,7,7,347,44,10,24,210,48,13,27,62,43,15,33,104,49*44
$GPGSV,5,2,18,16,39,264,47,20,51,202,48,21,87,131,46,26,26,233,49*71
$GPGSV,5,3,18,27,32,304,46,29,22,141,42,33,5,248,35,36,25,200,*43
$GPGSV,5,4,18,37,22,211,,38,5,248,,39,23,208,,40,26,172,*42
$GPGSV,5,5,18,41,19,140,,45,15,129,*77
$GLGSV,3,1,9,70,28,35,36,71,64,98,50,72,34,175,48,77,11,264,41*58
$GLGSV,3,2,9,78,23,313,42,79,16,355,49,86,57,106,51,87,57,310,54*52
$GLGSV,3,3,9,88,10,301,45*6E
$GPGSA,A,3,7,10,13,15,16,20,21,26,27,29,,,1.4,0.6,1.0*0C
$GLGSA,A,3,70,71,72,77,78,79,86,87,88,,,,1.4,0.6,1.0*28
$PNVGBLS,122421.40,0.058,-0.178,-0.016,0.188,288.01,-5.03,R*01
$PNVGBSS,1694,1694,0,,0.0*7F
$GPRMC,122421.60,A,5545.3093746,N,04844.4029652,E,0.01,294.67,200718,0.0,E,D*3C
$GPGGA,122421.60,5545.3093746,N,04844.4029652,E,2,19,0.6,194.470,M,3.898,M,0.0,*75
$GPGSV,5,1,18,7,7,347,44,10,24,210,48,13,27,62,43,15,33,104,49*44
$GPGSV,5,2,18,16,39,264,47,20,51,202,48,21,87,131,46,26,26,233,49*71
$GPGSV,5,3,18,27,32,304,46,29,22,141,42,33,5,248,35,36,25,200,*43
$GPGSV,5,4,18,37,22,211,,38,5,248,,39,23,208,,40,26,172,*42
$GPGSV,5,5,18,41,19,140,,45,15,129,*77
$GLGSV,3,1,9,70,28,35,36,71,64,98,50,72,34,175,48,77,11,264,41*58
$GLGSV,3,2,9,78,23,313,42,79,16,355,49,86,57,106,51,87,57,310,54*52
$GLGSV,3,3,9,88,10,301,45*6E
$GPGSA,A,3,7,10,13,15,16,20,21,26,27,29,,,1.4,0.6,1.0*0C
$GLGSA,A,3,70,71,72,77,78,79,86,87,88,,,,1.4,0.6,1.0*28
$PNVGBLS,122421.60,0.057,-0.179,-0.015,0.188,287.64,-4.46,R*02
$PNVGBSS,1694,1694,0,,0.0*7F
$GPRMC,122421.80,A,5545.3093763,N,04844.4029662,E,0.02,294.67,200718,0.0,E,D*35
$GPGGA,122421.80,5545.3093763,N,04844.4029662,E,2,19,0.6,194.469,M,3.898,M,0.0,*77
$GPGSV,5,1,18,7,7,347,44,10,24,210,48,13,27,62,43,15,33,104,49*44
$GPGSV,5,2,18,16,39,264,47,20,51,202,48,21,87,131,46,26,26,233,49*71
$GPGSV,5,3,18,27,32,304,46,29,22,141,42,33,5,248,35,36,25,200,*43
$GPGSV,5,4,18,37,22,211,,38,5,248,,39,23,208,,40,26,172,*42
$GPGSV,5,5,18,41,19,140,,45,15,129,*77
$GLGSV,3,1,9,70,28,35,36,71,64,98,50,72,34,175,48,77,11,264,41*58
$GLGSV,3,2,9,78,23,313,42,79,16,355,49,86,57,106,51,87,57,310,54*52
$GLGSV,3,3,9,88,10,301,45*6E
$GPGSA,A,3,7,10,13,15,16,20,21,26,27,29,,,1.4,0.6,1.0*0C
$GLGSA,A,3,70,71,72,77,78,79,86,87,88,,,,1.4,0.6,1.0*28
$PNVGBLS,122421.80,0.058,-0.179,-0.013,0.188,287.89,-4.09,R*0D
$PNVGBSS,1694,1694,0,,0.0*7F
$GPRMC,122422.00,A,5545.3093776,N,04844.4029632,E,0.02,294.67,200718,0.0,E,D*3F
$GPGGA,122422.00,5545.3093776,N,04844.4029632,E,2,19,0.6,194.466,M,3.898,M,0.0,*72
$GPGSV,5,1,18,7,7,347,44,10,24,210,48,13,27,62,43,15,33,104,49*44
$GPGSV,5,2,18,16,39,264,47,20,51,202,48,21,87,131,46,26,26,233,49*71
$GPGSV,5,3,18,27,32,304,46,29,22,141,42,33,5,248,34,36,25,200,*42
$GPGSV,5,4,18,37,22,211,,38,5,248,,39,23,208,,40,26,172,*42
$GPGSV,5,5,18,41,19,140,,45,15,129,*77
$GLGSV,3,1,9,70,28,35,35,71,64,98,50,72,34,175,49,77,11,264,41*5A
$GLGSV,3,2,9,78,23,313,42,79,16,355,49,86,57,106,51,87,57,310,54*52
$GLGSV,3,3,9,88,10,301,46*6D
$GPGSA,A,3,7,10,13,15,16,20,21,26,27,29,,,1.4,0.6,1.0*0C
$GLGSA,A,3,70,71,72,77,78,79,86,87,88,,,,1.4,0.6,1.0*28
$PNVGBLS,122422.00,0.057,-0.179,-0.013,0.189,287.73,-4.01,R*05
$PNVGBSS,1694,1694,0,,0.0*7F
$GPRMC,122422.20,A,5545.3093773,N,04844.4029616,E,0.01,294.67,200718,0.0,E,D*3D
$GPGGA,122422.20,5545.3093773,N,04844.4029616,E,2,19,0.6,194.463,M,3.898,M,0.0,*76
$GPGSV,5,1,18,7,7,347,44,10,24,210,48,13,27,62,43,15,33,104,49*44
$GPGSV,5,2,18,16,39,264,47,20,51,202,48,21,87,131,46,26,26,233,49*71
$GPGSV,5,3,18,27,32,304,46,29,22,141,42,33,5,248,34,36,25,200,*42
$GPGSV,5,4,18,37,22,211,,38,5,248,,39,23,208,,40,26,172,*42
$GPGSV,5,5,18,41,19,140,,45,15,129,*77
$GLGSV,3,1,9,70,28,35,35,71,64,98,50,72,34,175,49,77,11,264,41*5A
$GLGSV,3,2,9,78,23,313,42,79,16,355,49,86,57,106,51,87,57,310,54*52
$GLGSV,3,3,9,88,10,301,46*6D
$GPGSA,A,3,7,10,13,15,16,20,21,26,27,29,,,1.4,0.6,1.0*0C
$GLGSA,A,3,70,71,72,77,78,79,86,87,88,,,,1.4,0.6,1.0*28
$PNVGBLS,122422.20,0.057,-0.179,-0.016,0.188,287.59,-4.99,R*0A
$PNVGBSS,1694,1694,0,,0.0*7F
$GPRMC,122422.40,A,5545.3093786,N,04844.4029597,E,0.01,294.67,200718,0.0,E,D*3B
$GPGGA,122422.40,5545.3093786,N,04844.4029597,E,2,19,0.6,194.469,M,3.898,M,0.0,*7A
$GPGSV,5,1,18,7,7,347,44,10,24,210,48,13,27,62,43,15,33,104,49*44
$GPGSV,5,2,18,16,39,264,47,20,51,202,48,21,87,131,46,26,26,233,49*71
$GPGSV,5,3,18,27,32,304,46,29,22,141,42,33,5,248,34,36,25,200,*42
$GPGSV,5,4,18,37,22,211,,38,5,248,,39,23,208,,40,26,172,*42
$GPGSV,5,5,18,41,19,140,,45,15,129,*77
$GLGSV,3,1,9,70,28,35,35,71,64,98,50,72,34,175,49,77,11,264,41*5A
$GLGSV,3,2,9,78,23,313,42,79,16,355,49,86,57,106,51,87,57,310,54*52
$GLGSV,3,3,9,88,10,301,46*6D
$GPGSA,A,3,7,10,13,15,16,20,21,26,27,29,,,1.4,0.6,1.0*0C
$GLGSA,A,3,70,71,72,77,78,79,86,87,88,,,,1.4,0.6,1.0*28
$PNVGBLS,122422.40,0.057,-0.179,-0.016,0.189,287.64,-4.89,R*02
$PNVGBSS,1694,1694,0,,0.0*7F
$GPRMC,122422.60,A,5545.3093807,N,04844.4029570,E,0.02,294.67,200718,0.0,E,D*35
$GPGGA,122422.60,5545.3093807,N,04844.4029570,E,2,19,0.6,194.465,M,3.898,M,0.0,*7B
$GPGSV,5,1,18,7,7,347,44,10,24,210,48,13,27,62,43,15,33,104,49*44
$GPGSV,5,2,18,16,39,264,47,20,51,202,48,21,87,131,46,26,26,233,49*71
$GPGSV,5,3,18,27,32,304,46,29,22,141,42,33,5,248,34,36,25,200,*42
$GPGSV,5,4,18,37,22,211,,38,5,248,,39,23,208,,40,26,172,*42
$GPGSV,5,5,18,41,19,140,,45,15,129,*77
$GLGSV,3,1,9,70,28,35,35,71,64,98,50,72,34,175,49,77,11,264,41*5A
$GLGSV,3,2,9,78,23,313,42,79,16,355,49,86,57,106,51,87,57,310,54*52
$GLGSV,3,3,9,88,10,301,46*6D
$GPGSA,A,3,7,10,13,15,16,20,21,26,27,29,,,1.4,0.6,1.0*0C
$GLGSA,A,3,70,71,72,77,78,79,86,87,88,,,,1.4,0.6,1.0*28
$PNVGBLS,122422.60,0.058,-0.179,-0.014,0.189,287.93,-4.16,R*03
$PNVGBSS,1694,1694,0,,0.0*7F
$GPRMC,122422.80,A,5545.3093801,N,04844.4029608,E,0.03,294.67,200718,0.0,E,D*30
$GPGGA,122422.80,5545.3093801,N,04844.4029608,E,2,19,0.6,194.455,M,3.898,M,0.0,*7C
$GPGSV,5,1,18,7,7,347,44,10,24,210,48,13,27,62,43,15,33,104,49*44
$GPGSV,5,2,18,16,39,264,47,20,51,202,48,21,87,131,46,26,26,233,49*71
$GPGSV,5,3,18,27,32,304,46,29,22,141,42,33,5,248,34,36,25,200,*42
$GPGSV,5,4,18,37,22,211,,38,5,248,,39,23,208,,40,26,172,*42
$GPGSV,5,5,18,41,19,140,,45,15,129,*77
$GLGSV,3,1,9,70,28,35,35,71,64,98,50,72,34,175,49,77,11,264,41*5A
$GLGSV,3,2,9,78,23,313,42,79,16,355,49,86,57,106,51,87,57,310,54*52
$GLGSV,3,3,9,88,10,301,46*6D
$GPGSA,A,3,7,10,13,15,16,20,21,26,27,29,,,1.4,0.6,1.0*0C
$GLGSA,A,3,70,71,72,77,78,79,86,87,88,,,,1.4,0.6,1.0*28
$PNVGBLS,122422.80,0.057,-0.180,-0.014,0.189,287.65,-4.18,R*03
$PNVGBSS,1694,1694,0,,0.0*7F
$GPRMC,122423.00,A,5545.3093807,N,04844.4029600,E,0.01,294.67,200718,0.0,E,D*35
$GPGGA,122423.00,5545.3093807,N,04844.4029600,E,2,19,0.6,194.462,M,3.898,M,0.0,*7F
$GPGSV,5,1,18,7,7,347,44,10,24,210,48,13,27,62,43,15,33,104,49*44
$GPGSV,5,2,18,16,39,264,47,20,51,202,48,21,87,131,46,26,26,233,49*71
$GPGSV,5,3,18,27,32,304,46,29,22,141,42,33,5,248,35,36,25,200,*43
$GPGSV,5,4,18,37,22,211,,38,5,248,,39,23,208,,40,26,172,*42
$GPGSV,5,5,18,41,19,140,,45,15,129,*77
$GLGSV,3,1,9,70,28,35,35,71,64,98,50,72,34,175,48,77,11,264,42*58
$GLGSV,3,2,9,78,23,313,41,79,16,355,49,86,57,106,51,87,57,310,54*51
$GLGSV,3,3,9,88,10,301,46*6D
$GPGSA,A,3,7,10,13,15,16,20,21,26,27,29,,,1.4,0.6,1.0*0C
$GLGSA,A,3,70,71,72,77,78,79,86,87,88,,,,1.4,0.6,1.0*28
$PNVGBLS,122423.00,0.055,-0.180,-0.015,0.189,287.14,-4.46,R*04
$PNVGBSS,1694,1694,0,,0.0*7F
$GPRMC,122423.20,A,5545.3093796,N,04844.4029562,E,0.02,294.67,200718,0.0,E,D*34
$GPGGA,122423.20,5545.3093796,N,04844.4029562,E,2,19,0.6,194.460,M,3.898,M,0.0,*7F
$GPGSV,5,1,18,7,7,347,44,10,24,210,48,13,27,62,43,15,33,104,49*44
$GPGSV,5,2,18,16,39,264,47,20,51,202,48,21,87,131,46,26,26,233,49*71
$GPGSV,5,3,18,27,32,304,46,29,22,141,42,33,5,248,35,36,25,200,*43
$GPGSV,5,4,18,37,22,211,,38,5,248,,39,23,208,,40,26,172,*42
$GPGSV,5,5,18,41,19,140,,45,15,129,*77
$GLGSV,3,1,9,70,28,35,35,71,64,98,50,72,34,175,48,77,11,264,42*58
$GLGSV,3,2,9,78,23,313,41,79,16,355,49,86,57,106,51,87,57,310,54*51
$GLGSV,3,3,9,88,10,301,46*6D
$GPGSA,A,3,7,10,13,15,16,20,21,26,27,29,,,1.4,0.6,1.0*0C
$GLGSA,A,3,70,71,72,77,78,79,86,87,88,,,,1.4,0.6,1.0*28
$PNVGBLS,122423.20,0.057,-0.180,-0.014,0.189,287.47,-4.29,R*0A
$PNVGBSS,1695,1695,0,,0.0*7F
$GPRMC,122423.40,A,5545.3093821,N,04844.4029515,E,0.02,294.67,200718,0.0,E,D*31
$GPGGA,122423.40,5545.3093821,N,04844.4029515,E,2,19,0.6,194.468,M,3.898,M,0.0,*72
$GPGSV,5,1,18,7,7,347,44,10,24,210,48,13,27,62,43,15,33,104,49*44
$GPGSV,5,2,18,16,39,264,47,20,51,202,48,21,87,131,46,26,26,233,49*71
$GPGSV,5,3,18,27,32,304,46,29,22,141,42,33,5,248,35,36,25,200,*43
$GPGSV,5,4,18,37,22,211,,38,5,248,,39,23,208,,40,26,172,*42
$GPGSV,5,5,18,41,19,140,,45,15,129,*77
$GLGSV,3,1,9,70,28,35,35,71,64,98,50,72,34,175,48,77,11,264,42*58
$GLGSV,3,2,9,78,23,313,41,79,16,355,49,86,57,106,51,87,57,310,54*51
$GLGSV,3,3,9,88,10,301,46*6D
$GPGSA,A,3,7,10,13,15,16,20,21,26,27,29,,,1.4,0.6,1.0*0C
$GLGSA,A,3,70,71,72,77,78,79,86,87,88,,,,1.4,0.6,1.0*28
$PNVGBLS,122423.40,0.058,-0.180,-0.013,0.189,287.78,-3.96,R*0B
$PNVGBSS,1695,1695,0,,0.0*7F
$GPRMC,122423.60,A,5545.3093809,N,04844.4029507,E,0.02,294.67,200718,0.0,E,D*3A
$GPGGA,122423.60,5545.3093809,N,04844.4029507,E,2,19,0.6,194.462,M,3.898,M,0.0,*73
$GPGSV,5,1,18,7,7,347,44,10,24,210,48,13,27,62,43,15,33,104,49*44
$GPGSV,5,2,18,16,39,264,47,20,51,202,48,21,87,131,46,26,26,233,49*71
$GPGSV,5,3,18,27,32,304,46,29,22,141,42,33,5,248,35,36,25,200,*43
$GPGSV,5,4,18,37,22,211,,38,5,248,,39,23,208,,40,26,172,*42
$GPGSV,5,5,18,41,19,140,,45,15,129,*77
$GLGSV,3,1,9,70,28,35,35,71,64,98,50,72,34,175,48,77,11,264,42*58
$GLGSV,3,2,9,78,23,313,41,79,16,355,49,86,57,106,51,87,57,310,54*51
$GLGSV,3,3,9,88,10,301,46*6D
$GPGSA,A,3,7,10,13,15,16,20,21,26,27,29,,,1.4,0.6,1.0*0C
$GLGSA,A,3,70,71,72,77,78,79,86,87,88,,,,1.4,0.6,1.0*28
$PNVGBLS,122423.60,0.056,-0.180,-0.014,0.189,287.38,-4.17,R*0A
$PNVGBSS,1695,1695,0,,0.0*7F
$GPRMC,122423.80,A,5545.3093820,N,04844.4029493,E,0.01,294.67,200718,0.0,E,D*30
$GPGGA,122423.80,5545.3093820,N,04844.4029493,E,2,19,0.6,194.467,M,3.898,M,0.0,*7F
$GPGSV,5,1,18,7,7,347,44,10,24,210,48,13,27,62,43,15,33,104,49*44
$GPGSV,5,2,18,16,39,264,47,20,51,202,48,21,87,131,46,26,26,233,49*71
$GPGSV,5,3,18,27,32,304,46,29,22,141,42,33,5,248,35,36,25,200,*43
$GPGSV,5,4,18,37,22,211,,38,5,248,,39,23,208,,40,26,172,*42
$GPGSV,5,5,18,41,19,140,,45,15,129,*77
$GLGSV,3,1,9,70,28,35,35,71,64,98,50,72,34,175,48,77,11,264,42*58
$GLGSV,3,2,9,78,23,313,41,79,16,355,49,86,57,106,51,87,57,310,54*51
$GLGSV,3,3,9,88,10,301,46*6D
$GPGSA,A,3,7,10,13,15,16,20,21,26,27,29,,,1.4,0.6,1.0*0C
$GLGSA,A,3,70,71,72,77,78,79,86,87,88,,,,1.4,0.6,1.0*28
$PNVGBLS,122423.80,0.057,-0.179,-0.013,0.188,287.53,-4.03,R*0D
$PNVGBSS,1695,1695,0,,0.0*7F
$GPRMC,122424.00,A,5545.3093834,N,04844.4029455,E,0.01,294.67,200718,0.0,E,D*30
$GPGGA,122424.00,5545.3093834,N,04844.4029455,E,2,19,0.6,194.465,M,3.898,M,0.0,*7D
$GPGSV,5,1,18,7,7,347,45,10,24,210,48,13,27,62,43,15,33,104,49*45
$GPGSV,5,2,18,16,39,264,47,20,51,202,48,21,87,131,47,26,26,233,50*78
$GPGSV,5,3,18,27,32,304,46,29,22,141,43,33,5,248,35,36,25,200,*42
$GPGSV,5,4,18,37,22,211,,38,5,248,,39,23,208,,40,26,172,*42
$GPGSV,5,5,18,41,19,140,,45,15,129,*77
$GLGSV,3,1,9,70,28,35,35,71,64,98,50,72,34,175,48,77,11,264,41*5B
$GLGSV,3,2,9,78,23,313,41,79,16,355,49,86,57,106,51,87,57,310,55*50
$GLGSV,3,3,9,88,10,301,46*6D
$GPGSA,A,3,7,10,13,15,16,20,21,26,27,29,,,1.4,0.6,1.0*0C
$GLGSA,A,3,70,71,72,77,78,79,86,87,88,,,,1.4,0.6,1.0*28
$PNVGBLS,122424.00,0.056,-0.180,-0.015,0.189,287.37,-4.46,R*01
$PNVGBSS,1695,1695,0,,0.0*7F
$GPRMC,122424.20,A,5545.3093825,N,04844.4029429,E,0.01,294.67,200718,0.0,E,D*39
$GPGGA,122424.20,5545.3093825,N,04844.4029429,E,2,19,0.6,194.461,M,3.898,M,0.0,*70
$GPGSV,5,1,18,7,7,347,45,10,24,210,48,13,27,62,43,15,33,104,48*44
$GPGSV,5,2,18,16,39,264,47,20,51,202,48,21,87,131,47,26,26,233,50*78
$GPGSV,5,3,18,27,32,304,46,29,22,141,42,33,5,248,35,36,25,200,*43
$GPGSV,5,4,18,37,22,211,,38,5,248,,39,23,208,,40,26,172,*42
$GPGSV,5,5,18,41,19,140,,45,15,129,*77
$GLGSV,3,1,9,70,28,35,35,71,64,98,50,72,34,175,48,77,11,264,41*5B
$GLGSV,3,2,9,78,23,313,41,79,16,355,49,86,57,106,51,87,57,310,55*50
$GLGSV,3,3,9,88,10,301,46*6D
$GPGSA,A,3,7,10,13,15,16,20,21,26,27,29,,,1.4,0.6,1.0*0C
$GLGSA,A,3,70,71,72,77,78,79,86,87,88,,,,1.4,0.6,1.0*28
$PNVGBLS,122424.20,0.056,-0.179,-0.014,0.188,287.41,-4.21,R*05
$PNVGBSS,1695,1695,0,,0.0*7F
$GPRMC,122424.40,A,5545.3093851,N,04844.4029409,E,0.03,294.67,200718,0.0,E,D*3C
$GPGGA,122424.40,5545.3093851,N,04844.4029409,E,2,19,0.6,194.461,M,3.898,M,0.0,*77
$GPGSV,5,1,18,7,7,347,45,10,24,210,48,13,27,62,43,15,33,104,48*44
$GPGSV,5,2,18,16,39,264,47,20,51,202,48,21,87,131,47,26,26,233,50*78
$GPGSV,5,3,18,27,32,304,46,29,22,141,42,33,5,248,35,36,25,200,*43
$GPGSV,5,4,18,37,22,211,,38,5,248,,39,23,208,,40,26,172,*42
$GPGSV,5,5,18,41,19,140,,45,15,129,*77
$GLGSV,3,1,9,70,28,35,35,71,64,98,50,72,34,175,48,77,11,264,41*5B
$GLGSV,3,2,9,78,23,313,41,79,16,355,49,86,57,106,51,87,57,310,55*50
$GLGSV,3,3,9,88,10,301,46*6D
$GPGSA,A,3,7,10,13,15,16,20,21,26,27,29,,,1.4,0.6,1.0*0C
$GLGSA,A,3,70,71,72,77,78,79,86,87,88,,,,1.4,0.6,1.0*28
$PNVGBLS,122424.40,0.056,-0.180,-0.016,0.189,287.28,-4.78,R*05
$PNVGBSS,1695,1695,0,,0.0*7F
$GPRMC,122424.60,A,5545.3093847,N,04844.4029437,E,0.03,294.67,200718,0.0,E,D*34
$GPGGA,122424.60,5545.3093847,N,04844.4029437,E,2,19,0.6,194.453,M,3.898,M,0.0,*7E
$GPGSV,5,1,18,7,7,347,44,10,24,210,48,13,27,62,43,15,33,104,48*45
$GPGSV,5,2,18,16,39,264,47,20,51,202,48,21,87,131,47,26,26,233,50*78
$GPGSV,5,3,18,27,32,304,46,29,22,141,42,33,5,248,34,36,25,200,*42
$GPGSV,5,4,18,37,22,211,,38,5,248,,39,23,208,,40,26,172,*42
$GPGSV,5,5,18,41,19,140,,45,15,129,*77
$GLGSV,3,1,9,70,28,35,35,71,64,98,50,72,34,175,48,77,11,264,41*5B
$GLGSV,3,2,9,78,23,313,41,79,16,355,49,86,57,106,51,87,57,310,55*50
$GLGSV,3,3,9,88,10,301,46*6D
$GPGSA,A,3,7,10,13,15,16,20,21,26,27,29,,,1.4,0.6,1.0*0C
$GLGSA,A,3,70,71,72,77,78,79,86,87,88,,,,1.4,0.6,1.0*28
$PNVGBLS,122424.60,0.056,-0.180,-0.015,0.189,287.45,-4.50,R*05
$PNVGBSS,1695,1695,0,,0.0*7F
$GPRMC,122424.80,A,5545.3093851,N,04844.4029417,E,0.00,294.67,200718,0.0,E,D*3C
$GPGGA,122424.80,5545.3093851,N,04844.4029417,E,2,19,0.6,194.454,M,3.898,M,0.0,*72
$GPGSV,5,1,18,7,7,347,44,10,24,210,48,13,27,62,43,15,33,104,48*45
$GPGSV,5,2,18,16,39,264,47,20,51,202,48,21,87,131,47,26,26,233,50*78
$GPGSV,5,3,18,27,32,304,46,29,22,141,42,33,5,248,34,36,25,200,*42
$GPGSV,5,4,18,37,22,211,,38,5,248,,39,23,208,,40,26,172,*42
$GPGSV,5,5,18,41,19,140,,45,15,129,*77
$GLGSV,3,1,9,70,28,35,35,71,64,98,50,72,34,175,48,77,11,264,41*5B
$GLGSV,3,2,9,78,23,313,41,79,16,355,49,86,57,106,51,87,57,310,55*50
$GLGSV,3,3,9,88,10,301,46*6D
$GPGSA,A,3,7,10,13,15,16,20,21,26,27,29,,,1.4,0.6,1.0*0C
$GLGSA,A,3,70,71,72,77,78,79,86,87,88,,,,1.4,0.6,1.0*28
$PNVGBLS,122424.80,0.057,-0.180,-0.015,0.189,287.47,-4.68,R*03
$PNVGBSS,1695,1695,0,,0.0*7F
$GPRMC,122425.00,A,5545.3093847,N,04844.4029439,E,0.03,294.67,200718,0.0,E,D*3D
$GPGGA,122425.00,5545.3093847,N,04844.4029439,E,2,19,0.6,194.454,M,3.898,M,0.0,*70
$GPGSV,5,1,18,7,7,347,44,10,24,210,48,13,27,62,42,15,33,104,49*45
$GPGSV,5,2,18,16,39,264,47,20,51,202,48,21,87,131,47,26,26,233,49*70
$GPGSV,5,3,18,27,32,304,46,29,22,141,42,33,5,248,35,36,25,200,*43
$GPGSV,5,4,18,37,22,211,,38,5,248,,39,23,208,,40,26,172,*42
$GPGSV,5,5,18,41,19,140,,45,15,129,*77
$GLGSV,3,1,9,70,28,35,35,71,64,98,50,72,34,175,49,77,11,264,42*59
$GLGSV,3,2,9,78,23,313,42,79,16,355,49,86,57,106,51,87,57,310,55*53
$GLGSV,3,3,9,88,10,301,45*6E
$GPGSA,A,3,7,10,13,15,16,20,21,26,27,29,,,1.4,0.6,1.0*0C
$GLGSA,A,3,70,71,72,77,78,79,86,87,88,,,,1.4,0.6,1.0*28
$PNVGBLS,122425.00,0.056,-0.180,-0.016,0.189,287.32,-5.00,R*05
$PNVGBSS,1695,1695,0,,0.0*7F
$GPRMC,122425.20,A,5545.3093834,N,04844.4029397,E,0.02,294.67,200718,0.0,E,D*39
$GPGGA,122425.20,5545.3093834,N,04844.4029397,E,2,19,0.6,194.442,M,3.898,M,0.0,*72
$GPGSV,5,1,18,7,7,347,44,10,24,210,48,13,27,62,42,15,33,104,49*45
$GPGSV,5,2,18,16,39,264,47,20,51,202,48,21,87,131,47,26,26,233,49*70
$GPGSV,5,3,18,27,32,304,46,29,22,141,42,33,5,248,35,36,25,200,*43
$GPGSV,5,4,18,37,22,211,,38,5,248,,39,23,208,,40,26,172,*42
$GPGSV,5,5,18,41,19,140,,45,15,129,*77
$GLGSV,3,1,9,70,28,35,35,71,64,98,50,72,34,175,49,77,11,264,42*59
$GLGSV,3,2,9,78,23,313,42,79,16,355,49,86,57,106,51,87,57,310,55*53
$GLGSV,3,3,9,88,10,301,45*6E
$GPGSA,A,3,7,10,13,15,16,20,21,26,27,29,,,1.4,0.6,1.0*0C
$GLGSA,A,3,70,71,72,77,78,79,86,87,88,,,,1.4,0.6,1.0*28
$PNVGBLS,122425.20,0.057,-0.179,-0.013,0.189,287.58,-4.02,R*0A
$PNVGBSS,1695,1695,0,,0.0*7F
$GPRMC,122425.40,A,5545.3093844,N,04844.4029387,E,0.01,294.67,200718,0.0,E,D*3A
$GPGGA,122425.40,5545.3093844,N,04844.4029387,E,2,19,0.6,194.442,M,3.898,M,0.0,*72
$GPGSV,5,1,18,7,7,347,44,10,24,210,48,13,27,62,42,15,33,104,49*45
$GPGSV,5,2,18,16,39,264,47,20,51,202,48,21,87,131,47,26,26,233,49*70
$GPGSV,5,3,18,27,32,304,46,29,22,141,42,33,5,248,35,36,25,200,*43
$GPGSV,5,4,18,37,22,211,,38,5,248,,39,23,208,,40,26,172,*42
$GPGSV,5,5,18,41,19,140,,45,15,129,*77
$GLGSV,3,1,9,70,28,35,35,71,64,98,50,72,34,175,49,77,11,264,42*59
$GLGSV,3,2,9,78,23,313,42,79,16,355,49,86,57,106,51,87,57,310,55*53
$GLGSV,3,3,9,88,10,301,45*6E
$GPGSA,A,3,7,10,13,15,16,20,21,26,27,29,,,1.4,0.6,1.0*0C
$GLGSA,A,3,70,71,72,77,78,79,86,87,88,,,,1.4,0.6,1.0*28
$PNVGBLS,122425.40,0.057,-0.179,-0.015,0.188,287.57,-4.46,R*04
$PNVGBSS,1695,1695,0,,0.0*7F
$GPRMC,122425.60,A,5545.3093858,N,04844.4029394,E,0.02,294.67,200718,0.0,E,D*34
$GPGGA,122425.60,5545.3093858,N,04844.4029394,E,2,19,0.6,194.444,M,3.898,M,0.0,*79
$GPGSV,5,1,18,7,7,347,44,10,24,210,48,13,27,62,42,15,33,104,49*45
$GPGSV,5,2,18,16,39,264,47,20,51,202,48,21,87,131,47,26,26,233,49*70
$GPGSV,5,3,18,27,32,304,46,29,22,141,42,33,5,248,35,36,25,200,*43
$GPGSV,5,4,18,37,22,211,,38,5,248,,39,23,208,,40,26,172,*42
$GPGSV,5,5,18,41,19,140,,45,15,129,*77
$GLGSV,3,1,9,70,28,35,35,71,64,98,50,72,34,175,49,77,11,264,42*59
$GLGSV,3,2,9,78,23,313,42,79,16,355,49,86,57,106,51,87,57,310,55*53
$GLGSV,3,3,9,88,10,301,45*6E
$GPGSA,A,3,7,10,13,15,16,20,21,26,27,29,,,1.4,0.6,1.0*0C
$GLGSA,A,3,70,71,72,77,78,79,86,87,88,,,,1.4,0.6,1.0*28
$PNVGBLS,122425.60,0.057,-0.180,-0.015,0.190,287.48,-4.56,R*06
$PNVGBSS,1695,1695,0,,0.0*7F
$GPRMC,122425.80,A,5545.3093827,N,04844.4029370,E,0.03,294.67,200718,0.0,E,D*39
$GPGGA,122425.80,5545.3093827,N,04844.4029370,E,2,19,0.6,194.442,M,3.898,M,0.0,*73
$GPGSV,5,1,18,7,7,347,44,10,24,210,48,13,27,62,42,15,33,104,49*45
$GPGSV,5,2,18,16,39,264,47,20,51,202,48,21,87,131,47,26,26,233,49*70
$GPGSV,5,3,18,27,32,304,46,29,22,141,42,33,5,248,35,36,25,200,*43
$GPGSV,5,4,18,37,22,211,,38,5,248,,39,23,208,,40,26,172,*42
$GPGSV,5,5,18,41,19,140,,45,15,129,*77
$GLGSV,3,1,9,70,28,35,35,71,64,98,50,72,34,175,49,77,11,264,42*59
$GLGSV,3,2,9,78,23,313,42,79,16,355,49,86,57,106,51,87,57,310,55*53
$GLGSV,3,3,9,88,10,301,45*6E
$GPGSA,A,3,7,10,13,15,16,20,21,26,27,29,,,1.4,0.6,1.0*0C
$GLGSA,A,3,70,71,72,77,78,79,86,87,88,,,,1.4,0.6,1.0*28
$PNVGBLS,122425.80,0.055,-0.181,-0.014,0.190,287.00,-4.13,R*07
$PNVGBSS,1695,1695,0,,0.0*7F
$GPRMC,122426.00,A,5545.3093841,N,04844.4029383,E,0.01,294.67,200718,0.0,E,D*3C
$GPGGA,122426.00,5545.3093841,N,04844.4029383,E,2,19,0.6,194.438,M,3.898,M,0.0,*79
$GPGSV,5,1,18,7,7,347,43,10,24,210,48,13,27,62,42,15,33,104,49*42
$GPGSV,5,2,18,16,39,264,47,20,51,202,49,21,87,131,47,26,26,233,49*71
$GPGSV,5,3,18,27,32,304,46,29,22,141,42,33,5,248,35,36,25,200,*43
$GPGSV,5,4,18,37,22,211,,38,5,248,,39,23,208,,40,26,172,*42
$GPGSV,5,5,18,41,19,140,,45,15,129,*77
$GLGSV,3,1,9,70,28,35,35,71,64,98,50,72,34,175,49,77,11,264,42*59
$GLGSV,3,2,9,78,23,313,42,79,16,355,49,86,57,106,51,87,57,310,55*53
$GLGSV,3,3,9,88,10,301,46*6D
$GPGSA,A,3,7,10,13,15,16,20,21,26,27,29,,,1.4,0.6,1.0*0C
$GLGSA,A,3,70,71,72,77,78,79,86,87,88,,,,1.4,0.6,1.0*28
$PNVGBLS,122426.00,0.055,-0.181,-0.012,0.189,286.90,-3.65,R*0C
$PNVGBSS,1695,1695,0,,0.0*7F
$GPRMC,122426.20,A,5545.3093831,N,04844.4029380,E,0.01,294.67,200718,0.0,E,D*3A
$GPGGA,122426.20,5545.3093831,N,04844.4029380,E,2,19,0.6,194.428,M,3.898,M,0.0,*7E
$GPGSV,5,1,18,7,7,347,43,10,24,210,48,13,27,62,42,15,33,104,49*42
$GPGSV,5,2,18,16,39,264,47,20,51,202,49,21,87,131,47,26,26,233,49*71
$GPGSV,5,3,18,27,32,304,46,29,22,141,42,33,5,248,35,36,25,200,*43
$GPGSV,5,4,18,37,22,211,,38,5,248,,39,23,208,,40,26,172,*42
$GPGSV,5,5,18,41,19,140,,45,15,129,*77
$GLGSV,3,1,9,70,28,35,35,71,64,98,50,72,34,175,49,77,11,264,42*59
$GLGSV,3,2,9,78,23,313,42,79,16,355,49,86,57,106,51,87,57,310,55*53
$GLGSV,3,3,9,88,10,301,46*6D
$GPGSA,A,3,7,10,13,15,16,20,21,26,27,29,,,1.4,0.6,1.0*0C
$GLGSA,A,3,70,71,72,77,78,79,86,87,88,,,,1.4,0.6,1.0*28
$PNVGBLS,122426.20,0.056,-0.180,-0.013,0.189,287.16,-3.92,R*0A
$PNVGBSS,1696,1696,0,,0.0*7F
$GPRMC,122426.40,A,5545.3093837,N,04844.4029425,E,0.03,294.67,200718,0.0,E,D*30
$GPGGA,122426.40,5545.3093837,N,04844.4029425,E,2,19,0.6,194.424,M,3.898,M,0.0,*7A
$GPGSV,5,1,18,7,7,347,43,10,24,210,48,13,27,62,42,15,33,104,49*42
$GPGSV,5,2,18,16,39,264,47,20,51,202,48,21,87,131,47,26,26,233,49*70
$GPGSV,5,3,18,27,32,304,46,29,22,141,42,33,5,248,35,36,25,200,*43
$GPGSV,5,4,18,37,22,211,,38,5,248,,39,23,208,,40,26,172,*42
$GPGSV,5,5,18,41,19,140,,45,15,129,*77
$GLGSV,3,1,9,70,28,35,35,71,64,98,50,72,34,175,49,77,11,264,42*59
$GLGSV,3,2,9,78,23,313,42,79,16,355,49,86,57,106,51,87,57,310,55*53
$GLGSV,3,3,9,88,10,301,46*6D
$GPGSA,A,3,7,10,13,15,16,20,21,26,27,29,,,1.4,0.6,1.0*0C
$GLGSA,A,3,70,71,72,77,78,79,86,87,88,,,,1.4,0.6,1.0*28
$PNVGBLS,122426.40,0.057,-0.179,-0.014,0.189,287.66,-4.27,R*02
$PNVGBSS,1696,1696,0,,0.0*7F
$GPRMC,122426.60,A,5545.3093835,N,04844.4029436,E,0.02,294.67,200718,0.0,E,D*33
$GPGGA,122426.60,5545.3093835,N,04844.4029436,E,2,19,0.6,194.419,M,3.898,M,0.0,*76
$GPGSV,5,1,18,7,7,347,43,10,24,210,48,13,27,62,42,15,33,104,49*42
$GPGSV,5,2,18,16,39,264,47,20,51,202,48,21,87,131,47,26,26,233,49*70
$GPGSV,5,3,18,27,32,304,46,29,22,141,42,33,5,248,35,36,25,200,*43
$GPGSV,5,4,18,37,22,211,,38,5,248,,39,23,208,,40,26,172,*42
$GPGSV,5,5,18,41,19,140,,45,15,129,*77
$GLGSV,3,1,9,70,28,35,35,71,64,98,50,72,34,175,49,77,11,264,42*59
$GLGSV,3,2,9,78,23,313,42,79,16,355,49,86,57,106,51,87,57,310,55*53
$GLGSV,3,3,9,88,10,301,46*6D
$GPGSA,A,3,7,10,13,15,16,20,21,26,27,29,,,1.4,0.6,1.0*0C
$GLGSA,A,3,70,71,72,77,78,79,86,87,88,,,,1.4,0.6,1.0*28
$PNVGBLS,122426.60,0.056,-0.180,-0.014,0.189,287.18,-4.33,R*0B
$PNVGBSS,1696,1696,0,,0.0*7F
$GPRMC,122426.80,A,5545.3093881,N,04844.4029405,E,0.05,294.67,200718,0.0,E,D*35
$GPGGA,122426.80,5545.3093881,N,04844.4029405,E,2,19,0.6,194.426,M,3.898,M,0.0,*7B
$GPGSV,5,1,18,7,7,347,43,10,24,210,48,13,27,62,42,15,33,104,49*42
$GPGSV,5,2,18,16,39,264,47,20,51,202,48,21,87,131,47,26,26,233,49*70
$GPGSV,5,3,18,27,32,304,46,29,22,141,42,33,5,248,35,36,25,200,*43
$GPGSV,5,4,18,37,22,211,,38,5,248,,39,23,208,,40,26,172,*42
$GPGSV,5,5,18,41,19,140,,45,15,129,*77
$GLGSV,3,1,9,70,28,35,35,71,64,98,50,72,34,175,49,77,11,264,42*59
$GLGSV,3,2,9,78,23,313,42,79,16,355,49,86,57,106,51,87,57,310,55*53
$GLGSV,3,3,9,88,10,301,46*6D
$GPGSA,A,3,7,10,13,15,16,20,21,26,27,29,,,1.4,0.6,1.0*0C
$GLGSA,A,3,70,71,72,77,78,79,86,87,88,,,,1.4,0.6,1.0*28
$PNVGBLS,122426.80,0.056,-0.180,-0.017,0.189,287.17,-5.01,R*09
$PNVGBSS,1696,1696,0,,0.0*7F
$GPRMC,122427.00,A,5545.3093877,N,04844.4029413,E,0.01,294.67,200718,0.0,E,D*36
$GPGGA,122427.00,5545.3093877,N,04844.4029413,E,2,19,0.6,194.416,M,3.898,M,0.0,*7F
$GPGSV,5,1,18,7,7,347,44,10,24,210,48,13,27,62,42,15,33,104,49*45
$GPGSV,5,2,18,16,39,264,47,20,51,202,49,21,87,131,47,26,26,233,49*71
$GPGSV,5,3,18,27,32,304,46,29,22,141,43,33,5,248,34,36,25,200,*43
$GPGSV,5,4,18,37,22,211,,38,5,248,,39,23,208,,40,26,172,*42
$GPGSV,5,5,18,41,19,140,,45,15,129,*77
$GLGSV,3,1,9,70,28,35,35,71,64,98,50,72,34,175,48,77,11,264,41*5B
$GLGSV,3,2,9,78,23,313,41,79,16,355,49,86,57,106,52,87,57,310,54*52
$GLGSV,3,3,9,88,10,301,45*6E
$GPGSA,A,3,7,10,13,15,16,20,21,26,27,29,,,1.4,0.6,1.0*0C
$GLGSA,A,3,70,71,72,77,78,79,86,87,88,,,,1.4,0.6,1.0*28
$PNVGBLS,122427.00,0.057,-0.179,-0.015,0.188,287.67,-4.51,R*07
$PNVGBSS,1696,1696,0,,0.0*7F
$GPRMC,122427.20,A,5545.3093866,N,04844.4029375,E,0.03,294.67,200718,0.0,E,D*31
$GPGGA,122427.20,5545.3093866,N,04844.4029375,E,2,19,0.6,194.426,M,3.898,M,0.0,*79
$GPGSV,5,1,18,7,7,347,44,10,24,210,48,13,27,62,42,15,33,104,49*45
$GPGSV,5,2,18,16,39,264,47,20,51,202,49,21,87,131,47,26,26,233,49*71
$GPGSV,5,3,18,27,32,304,46,29,22,141,43,33,5,248,34,36,25,200,*43
$GPGSV,5,4,18,37,22,211,,38,5,248,,39,23,208,,40,26,172,*42
$GPGSV,5,5,18,41,19,140,,45,15,129,*77
$GLGSV,3,1,9,70,28,35,35,71,64,98,50,72,34,175,48,77,11,264,41*5B
$GLGSV,3,2,9,78,23,313,41,79,16,355,49,86,57,106,52,87,57,310,54*52
$GLGSV,3,3,9,88,10,301,45*6E
$GPGSA,A,3,7,10,13,15,16,20,21,26,27,29,,,1.4,0.6,1.0*0C
$GLGSA,A,3,70,71,72,77,78,79,86,87,88,,,,1.4,0.6,1.0*28
$PNVGBLS,122427.20,0.057,-0.179,-0.015,0.188,287.61,-4.42,R*01
$PNVGBSS,1697,1697,0,,0.0*7F
$GPRMC,122427.40,A,5545.3093878,N,04844.4029390,E,0.00,294.67,200718,0.0,E,D*30
$GPGGA,122427.40,5545.3093878,N,04844.4029390,E,2,19,0.6,194.417,M,3.898,M,0.0,*79
$GPGSV,5,1,18,7,7,347,44,10,24,210,48,13,27,62,43,15,33,104,49*44
$GPGSV,5,2,18,16,39,264,47,20,51,202,49,21,87,131,47,26,26,233,49*71
$GPGSV,5,3,18,27,32,304,46,29,22,141,43,33,5,248,34,36,25,200,*43
$GPGSV,5,4,18,37,22,211,,38,5,248,,39,23,208,,40,26,172,*42
$GPGSV,5,5,18,41,19,140,,45,15,129,*77
$GLGSV,3,1,9,70,28,35,35,71,64,98,50,72,34,175,48,77,11,264,41*5B
$GLGSV,3,2,9,78,23,313,41,79,16,355,49,86,57,106,52,87,57,310,54*52
$GLGSV,3,3,9,88,10,301,45*6E
$GPGSA,A,3,7,10,13,15,16,20,21,26,27,29,,,1.4,0.6,1.0*0C
$GLGSA,A,3,70,71,72,77,78,79,86,87,88,,,,1.4,0.6,1.0*28
$PNVGBLS,122427.40,0.057,-0.180,-0.013,0.189,287.71,-4.08,R*09
$PNVGBSS,1697,1697,0,,0.0*7F
$GPRMC,122427.60,A,5545.3093876,N,04844.4029467,E,0.05,294.67,200718,0.0,E,D*36
$GPGGA,122427.60,5545.3093876,N,04844.4029467,E,2,19,0.6,194.419,M,3.898,M,0.0,*74
$GPGSV,5,1,18,7,7,347,44,10,24,210,48,13,27,62,43,15,33,104,49*44
$GPGSV,5,2,18,16,39,264,47,20,51,202,49,21,87,131,47,26,26,233,49*71
$GPGSV,5,3,18,27,32,304,46,29,22,141,43,33,5,248,34,36,25,200,*43
$GPGSV,5,4,18,37,22,211,,38,5,248,,39,23,208,,40,26,172,*42
$GPGSV,5,5,18,41,19,140,,45,15,129,*77
$GLGSV,3,1,9,70,28,35,35,71,64,98,50,72,34,175,48,77,11,264,41*5B
$GLGSV,3,2,9,78,23,313,41,79,16,355,49,86,57,106,52,87,57,310,54*52
$GLGSV,3,3,9,88,10,301,45*6E
$GPGSA,A,3,7,10,13,15,16,20,21,26,27,29,,,1.4,0.6,1.0*0C
$GLGSA,A,3,70,71,72,77,78,79,86,87,88,,,,1.4,0.6,1.0*28
$PNVGBLS,122427.60,0.056,-0.180,-0.014,0.189,287.39,-4.37,R*0D
$PNVGBSS,1697,1697,0,,0.0*7F
$GPRMC,122427.80,A,5545.3093865,N,04844.4029605,E,0.11,294.67,200718,0.0,E,D*39
$GPGGA,122427.80,5545.3093865,N,04844.4029605,E,2,19,0.6,194.418,M,3.898,M,0.0,*7F
$GPGSV,5,1,18,7,7,347,44,10,24,210,48,13,27,62,43,15,33,104,49*44
$GPGSV,5,2,18,16,39,264,47,20,51,202,49,21,87,131,47,26,26,233,49*71
$GPGSV,5,3,18,27,32,304,46,29,22,141,43,33,5,248,34,36,25,200,*43
$GPGSV,5,4,18,37,22,211,,38,5,248,,39,23,208,,40,26,172,*42
$GPGSV,5,5,18,41,19,140,,45,15,129,*77
$GLGSV,3,1,9,70,28,35,35,71,64,98,50,72,34,175,48,77,11,264,41*5B
$GLGSV,3,2,9,78,23,313,41,79,16,355,49,86,57,106,52,87,57,310,54*52
$GLGSV,3,3,9,88,10,301,45*6E
$GPGSA,A,3,7,10,13,15,16,20,21,26,27,29,,,1.4,0.6,1.0*0C
$GLGSA,A,3,70,71,72,77,78,79,86,87,88,,,,1.4,0.6,1.0*28
$PNVGBLS,122427.80,0.058,-0.178,-0.015,0.188,288.04,-4.43,R*08
$PNVGBSS,1697,1697,0,,0.0*7F
$GPRMC,122428.00,A,5545.3093826,N,04844.4029844,E,0.21,294.67,200718,0.0,E,D*31
$GPGGA,122428.00,5545.3093826,N,04844.4029844,E,2,19,0.6,194.418,M,3.898,M,0.0,*74
$GPGSV,5,1,18,7,7,347,44,10,24,210,48,13,27,62,42,15,33,104,48*44
$GPGSV,5,2,18,16,39,264,47,20,51,202,49,21,87,131,47,26,26,233,49*71
$GPGSV,5,3,18,27,32,304,46,29,22,141,43,33,5,248,36,36,25,200,*41
$GPGSV,5,4,18,37,22,211,,38,5,248,,39,23,208,,40,26,172,*42
$GPGSV,5,5,18,41,19,140,,45,15,129,*77
$GLGSV,3,1,9,70,28,35,35,71,64,98,50,72,34,175,48,77,11,264,42*58
$GLGSV,3,2,9,78,23,313,41,79,16,355,49,86,57,106,51,87,57,310,54*51
$GLGSV,3,3,9,88,10,301,45*6E
$GPGSA,A,3,7,10,13,15,16,20,21,26,27,29,,,1.4,0.6,1.0*0C
$GLGSA,A,3,70,71,72,77,78,79,86,87,88,,,,1.4,0.6,1.0*28
$PNVGBLS,122428.00,0.057,-0.178,-0.015,0.187,287.82,-4.51,R*0D
$PNVGBSS,1697,1697,0,,0.0*7F
$GPRMC,122428.20,A,5545.3093834,N,04844.4029973,E,0.16,294.67,200718,0.0,E,D*31
$GPGGA,122428.20,5545.3093834,N,04844.4029973,E,2,19,0.6,194.418,M,3.898,M,0.0,*70
$GPGSV,5,1,18,7,7,347,44,10,24,210,48,13,27,62,42,15,33,104,48*44
$GPGSV,5,2,18,16,39,264,47,20,51,202,49,21,87,130,47,26,26,233,49*70
$GPGSV,5,3,18,27,32,304,46,29,22,141,43,33,5,248,36,36,25,200,*41
$GPGSV,5,4,18,37,22,211,,38,5,248,,39,23,208,,40,26,172,*42
$GPGSV,5,5,18,41,19,140,,45,15,129,*77
$GLGSV,3,1,9,70,28,35,35,71,64,97,50,72,34,175,48,77,10,264,42*56
$GLGSV,3,2,9,78,23,313,41,79,16,355,49,86,57,107,51,87,57,310,54*50
$GLGSV,3,3,9,88,10,301,45*6E
$GPGSA,A,3,7,10,13,15,16,20,21,26,27,29,,,1.4,0.6,1.0*0C
$GLGSA,A,3,70,71,72,77,78,79,86,87,88,,,,1.4,0.6,1.0*28
$PNVGBLS,122428.20,0.056,-0.180,-0.013,0.189,287.46,-3.90,R*03
$PNVGBSS,1698,1698,0,,0.0*7F
$GPRMC,122428.40,A,5545.3093847,N,04844.4030007,E,0.09,294.67,200718,0.0,E,D*3F
$GPGGA,122428.40,5545.3093847,N,04844.4030007,E,2,19,0.6,194.423,M,3.898,M,0.0,*78
$GPGSV,5,1,18,7,7,347,44,10,24,210,48,13,27,62,42,15,33,104,48*44
$GPGSV,5,2,18,16,39,264,47,20,51,202,49,21,87,130,47,26,26,233,49*70
$GPGSV,5,3,18,27,32,304,46,29,22,141,43,33,5,248,36,36,25,200,*41
$GPGSV,5,4,18,37,22,211,,38,5,248,,39,23,208,,40,26,172,*42
$GPGSV,5,5,18,41,19,140,,45,15,129,*77
$GLGSV,3,1,9,70,28,35,35,71,64,97,50,72,34,175,48,77,10,264,42*56
$GLGSV,3,2,9,78,23,313,41,79,16,355,49,86,57,107,51,87,57,310,54*50
$GLGSV,3,3,9,88,10,301,45*6E
$GPGSA,A,3,7,10,13,15,16,20,21,26,27,29,,,1.4,0.6,1.0*0C
$GLGSA,A,3,70,71,72,77,78,79,86,87,88,,,,1.4,0.6,1.0*28
$PNVGBLS,122428.40,0.057,-0.179,-0.012,0.188,287.53,-3.62,R*0B
$PNVGBSS,1698,1698,0,,0.0*7F
$GPRMC,122428.60,A,5545.3093845,N,04844.4030006,E,0.04,294.67,200718,0.0,E,D*33
$GPGGA,122428.60,5545.3093845,N,04844.4030006,E,2,19,0.6,194.421,M,3.898,M,0.0,*7B
$GPGSV,5,1,18,7,7,347,44,10,24,210,48,13,27,62,42,15,33,104,48*44
$GPGSV,5,2,18,16,39,264,47,20,51,202,49,21,87,130,47,26,26,233,49*70
$GPGSV,5,3,18,27,32,304,46,29,22,141,43,33,5,248,36,36,25,200,*41
$GPGSV,5,4,18,37,22,211,,38,5,248,,39,23,208,,40,26,172,*42
$GPGSV,5,5,18,41,19,140,,45,15,129,*77
$GLGSV,3,1,9,70,28,35,35,71,64,97,50,72,34,175,48,77,10,264,42*56
$GLGSV,3,2,9,78,23,313,41,79,16,355,49,86,57,107,51,87,57,310,54*50
$GLGSV,3,3,9,88,10,301,45*6E
$GPGSA,A,3,7,10,13,15,16,20,21,26,27,29,,,1.4,0.6,1.0*0C
$GLGSA,A,3,70,71,72,77,78,79,86,87,88,,,,1.4,0.6,1.0*28
$PNVGBLS,122428.60,0.057,-0.179,-0.014,0.189,287.65,-4.23,R*09
$PNVGBSS,1698,1698,0,,0.0*7F
$GPRMC,122428.80,A,5545.3093827,N,04844.4030071,E,0.07,294.67,200718,0.0,E,D*3A
$GPGGA,122428.80,5545.3093827,N,04844.4030071,E,2,19,0.6,194.420,M,3.898,M,0.0,*70
$GPGSV,5,1,18,7,7,347,44,10,24,210,48,13,27,62,42,15,33,104,48*44
$GPGSV,5,2,18,16,39,264,47,20,51,202,49,21,87,130,47,26,26,233,49*70
$GPGSV,5,3,18,27,32,304,46,29,22,141,43,33,5,248,36,36,25,200,*41
$GPGSV,5,4,18,37,22,211,,38,5,248,,39,23,208,,40,26,172,*42
$GPGSV,5,5,18,41,19,140,,45,15,129,*77
$GLGSV,3,1,9,70,28,35,35,71,64,97,50,72,34,175,48,77,10,264,42*56
$GLGSV,3,2,9,78,23,313,41,79,16,355,49,86,57,107,51,87,57,310,54*50
$GLGSV,3,3,9,88,10,301,45*6E
$GPGSA,A,3,7,10,13,15,16,20,21,26,27,29,,,1.4,0.6,1.0*0C
$GLGSA,A,3,70,71,72,77,78,79,86,87,88,,,,1.4,0.6,1.0*28
$PNVGBLS,122428.80,0.057,-0.179,-0.013,0.188,287.53,-3.83,R*09
$PNVGBSS,1698,1698,0,,0.0*7F
$GPRMC,122429.00,A,5545.3093803,N,04844.4030298,E,0.19,294.67,200718,0.0,E,D*3F
$GPGGA,122429.00,5545.3093803,N,04844.4030298,E,2,19,0.6,194.414,M,3.898,M,0.0,*7D
$GPGSV,5,1,18,7,7,347,44,10,24,210,49,13,27,62,43,15,33,104,48*44
$GPGSV,5,2,18,16,39,264,46,20,51,202,49,21,87,130,47,26,26,233,49*71
$GPGSV,5,3,18,27,32,304,47,29,22,141,43,33,5,248,36,36,25,200,*40
$GPGSV,5,4,18,37,22,211,,38,5,248,,39,23,208,,40,26,172,*42
$GPGSV,5,5,18,41,19,140,,45,15,129,*77
$GLGSV,3,1,9,70,28,35,35,71,64,97,49,72,34,175,48,77,10,264,41*5D
$GLGSV,3,2,9,78,23,313,42,79,16,355,48,86,57,107,51,87,57,310,54*52
$GLGSV,3,3,9,88,10,301,45*6E
$GPGSA,A,3,7,10,13,15,16,20,21,26,27,29,,,1.4,0.6,1.0*0C
$GLGSA,A,3,70,71,72,77,78,79,86,87,88,,,,1.4,0.6,1.0*28
$PNVGBLS,122429.00,0.055,-0.181,-0.007,0.189,286.82,-2.10,R*07
$PNVGBSS,1698,1698,0,,0.0*7F
$GPRMC,122429.20,A,5545.3093765,N,04844.4030673,E,0.33,294.67,200718,0.0,E,D*3B
$GPGGA,122429.20,5545.3093765,N,04844.4030673,E,2,19,0.6,194.422,M,3.898,M,0.0,*74
$GPGSV,5,1,18,7,7,347,44,10,24,210,49,13,27,62,43,15,33,104,48*44
$GPGSV,5,2,18,16,39,264,46,20,51,202,49,21,87,130,47,26,26,233,49*71
$GPGSV,5,3,18,27,32,304,47,29,22,141,43,33,5,248,36,36,25,200,*40
$GPGSV,5,4,18,37,22,211,,38,5,248,,39,23,208,,40,26,172,*42
$GPGSV,5,5,18,41,19,140,,45,15,129,*77
$GLGSV,3,1,9,70,28,35,35,71,64,97,49,72,34,175,48,77,10,264,41*5D
$GLGSV,3,2,9,78,23,313,42,79,16,355,48,86,57,107,51,87,57,310,54*52
$GLGSV,3,3,9,88,10,301,45*6E
$GPGSA,A,3,7,10,13,15,16,20,21,26,27,29,,,1.4,0.6,1.0*0C
$GLGSA,A,3,70,71,72,77,78,79,86,87,88,,,,1.4,0.6,1.0*28
$PNVGBLS,122429.20,0.058,-0.179,-0.013,0.189,288.02,-3.88,R*0C
$PNVGBSS,1698,1698,0,,0.0*7F
$GPRMC,122429.40,A,5545.3093627,N,04844.4031253,E,0.55,294.67,200718,0.0,E,D*3D
$GPGGA,122429.40,5545.3093627,N,04844.4031253,E,2,19,0.6,194.416,M,3.898,M,0.0,*75
$GPGSV,5,1,18,7,7,347,44,10,24,210,49,13,27,62,44,15,33,104,48*43
$GPGSV,5,2,18,16,39,264,46,20,51,202,49,21,87,130,47,26,26,233,49*71
$GPGSV,5,3,18,27,32,304,47,29,22,141,43,33,5,248,36,36,25,200,*40
$GPGSV,5,4,18,37,22,211,,38,5,248,,39,23,208,,40,26,172,*42
$GPGSV,5,5,18,41,19,140,,45,15,129,*77
$GLGSV,3,1,9,70,28,35,35,71,64,97,49,72,34,175,48,77,10,264,41*5D
$GLGSV,3,2,9,78,23,313,42,79,16,355,48,86,57,107,51,87,57,310,54*52
$GLGSV,3,3,9,88,10,301,45*6E
$GPGSA,A,3,7,10,13,15,16,20,21,26,27,29,,,1.4,0.6,1.0*0C
$GLGSA,A,3,70,71,72,77,78,79,86,87,88,,,,1.4,0.6,1.0*28
$PNVGBLS,122429.40,0.056,-0.181,-0.012,0.190,287.12,-3.48,R*08
$PNVGBSS,1698,1698,0,,0.0*7F
$GPRMC,122429.60,A,5545.3093588,N,04844.4032012,E,0.71,294.67,200718,0.0,E,D*3B
$GPGGA,122429.60,5545.3093588,N,04844.4032012,E,2,19,0.6,194.406,M,3.898,M,0.0,*74
$GPGSV,5,1,18,7,7,347,44,10,24,210,49,13,27,62,44,15,33,104,48*43
$GPGSV,5,2,18,16,39,264,46,20,51,202,49,21,87,130,47,26,26,233,49*71
$GPGSV,5,3,18,27,32,304,47,29,22,141,43,33,5,248,36,36,25,200,*40
$GPGSV,5,4,18,37,22,211,,38,5,248,,39,23,208,,40,26,172,*42
$GPGSV,5,5,18,41,19,140,,45,15,129,*77
$GLGSV,3,1,9,70,28,35,35,71,64,97,49,72,34,175,48,77,10,264,41*5D
$GLGSV,3,2,9,78,23,313,42,79,16,355,48,86,57,107,51,87,57,310,54*52
$GLGSV,3,3,9,88,10,301,45*6E
$GPGSA,A,3,7,10,13,15,16,20,21,26,27,29,,,1.4,0.6,1.0*0C
$GLGSA,A,3,70,71,72,77,78,79,86,87,88,,,,1.4,0.6,1.0*28
$PNVGBLS,122429.60,0.057,-0.178,-0.013,0.187,287.76,-3.86,R*0A
$PNVGBSS,1698,1698,0,,0.0*7F
$GPRMC,122429.80,A,5545.3093407,N,04844.4032810,E,0.82,294.67,200718,0.0,E,D*35
$GPGGA,122429.80,5545.3093407,N,04844.4032810,E,2,19,0.6,194.421,M,3.898,M,0.0,*73
$GPGSV,5,1,18,7,7,347,44,10,24,210,49,13,27,62,44,15,33,104,48*43
$GPGSV,5,2,18,16,39,264,46,20,51,202,49,21,87,130,47,26,26,233,49*71
$GPGSV,5,3,18,27,32,304,47,29,22,141,43,33,5,248,36,36,25,200,*40
$GPGSV,5,4,18,37,22,211,,38,5,248,,39,23,208,,40,26,172,*42
$GPGSV,5,5,18,41,19,140,,45,15,129,*77
$GLGSV,3,1,9,70,28,35,35,71,64,97,49,72,34,175,48,77,10,264,41*5D
$GLGSV,3,2,9,78,23,313,42,79,16,355,48,86,57,107,51,87,57,310,54*52
$GLGSV,3,3,9,88,10,301,45*6E
$GPGSA,A,3,7,10,13,15,16,20,21,26,27,29,,,1.4,0.6,1.0*0C
$GLGSA,A,3,70,71,72,77,78,79,86,87,88,,,,1.4,0.6,1.0*28
$PNVGBLS,122429.80,0.054,-0.178,-0.012,0.186,286.93,-3.80,R*0B
$PNVGBSS,1698,1698,0,,0.0*7F
$GPRMC,122430.00,A,5545.3093266,N,04844.4033680,E,0.90,294.67,200718,0.0,E,D*31
$GPGGA,122430.00,5545.3093266,N,04844.4033680,E,2,19,0.6,194.441,M,3.898,M,0.0,*72
$GPGSV,5,1,18,7,7,347,44,10,24,210,49,13,27,62,44,15,33,104,49*42
$GPGSV,5,2,18,16,39,264,47,20,51,202,48,21,87,130,46,26,26,233,49*70
$GPGSV,5,3,18,27,32,304,47,29,22,141,43,33,5,248,36,36,25,200,*40
$GPGSV,5,4,18,37,22,211,,38,5,248,,39,23,208,,40,26,172,*42
$GPGSV,5,5,18,41,19,140,,45,15,129,*77
$GLGSV,3,1,9,70,28,35,35,71,64,97,49,72,34,175,48,77,10,264,40*5C
$GLGSV,3,2,9,78,23,313,44,79,16,355,47,86,57,107,51,87,57,310,54*5B
$GLGSV,3,3,9,88,10,301,45*6E
$GPGSA,A,3,7,10,13,15,16,20,21,26,27,29,,,1.4,0.6,1.0*0C
$GLGSA,A,3,70,71,72,77,78,79,86,87,88,,,,1.4,0.6,1.0*28
$PNVGBLS,122430.00,0.055,-0.179,-0.012,0.188,287.09,-3.57,R*0D
$PNVGBSS,1698,1698,0,,0.0*7F
$GPRMC,122430.20,A,5545.3093142,N,04844.4034630,E,0.96,294.67,200718,0.0,E,D*3C
$GPGGA,122430.20,5545.3093142,N,04844.4034630,E,2,19,0.6,194.451,M,3.898,M,0.0,*78
$GPGSV,5,1,18,7,7,347,44,10,24,210,49,13,27,62,44,15,33,104,49*42
$GPGSV,5,2,18,16,39,264,47,20,51,202,48,21,87,130,47,26,26,233,49*71
$GPGSV,5,3,18,27,32,304,47,29,22,141,43,33,5,248,36,36,25,200,*40
$GPGSV,5,4,18,37,22,211,,38,5,248,,39,23,208,,40,26,172,*42
$GPGSV,5,5,18,41,19,140,,45,15,129,*77
$GLGSV,3,1,9,70,28,35,35,71,64,97,49,72,34,175,48,77,10,264,40*5C
$GLGSV,3,2,9,78,23,313,44,79,16,355,47,86,57,107,51,87,57,310,54*5B
$GLGSV,3,3,9,88,10,301,45*6E
$GPGSA,A,3,7,10,13,15,16,20,21,26,27,29,,,1.4,0.6,1.0*0C
$GLGSA,A,3,70,71,72,77,78,79,86,87,88,,,,1.4,0.6,1.0*28
$PNVGBLS,122430.20,0.057,-0.183,-0.010,0.191,287.22,-3.13,R*0B
$PNVGBSS,1699,1699,0,,0.0*7F
$GPRMC,122430.40,A,5545.3093017,N,04844.4035656,E,1.04,294.67,200718,0.0,E,D*30
$GPGGA,122430.40,5545.3093017,N,04844.4035656,E,2,19,0.6,194.460,M,3.898,M,0.0,*7C
$GPGSV,5,1,18,7,7,347,44,10,24,210,49,13,27,62,44,15,33,104,49*42
$GPGSV,5,2,18,16,39,264,47,20,51,202,48,21,87,130,46,26,26,233,49*70
$GPGSV,5,3,18,27,32,304,47,29,22,141,43,33,5,248,36,36,25,200,*40
$GPGSV,5,4,18,37,22,211,,38,5,248,,39,23,208,,40,26,172,*42
$GPGSV,5,5,18,41,19,140,,45,15,129,*77
$GLGSV,3,1,9,70,28,35,35,71,64,97,49,72,34,175,48,77,10,264,40*5C
$GLGSV,3,2,9,78,23,313,44,79,16,355,47,86,57,107,51,87,57,310,54*5B
$GLGSV,3,3,9,88,10,301,45*6E
$GPGSA,A,3,7,10,13,15,16,20,21,26,27,29,,,1.4,0.6,1.0*0C
$GLGSA,A,3,70,71,72,77,78,79,86,87,88,,,,1.4,0.6,1.0*28
$PNVGBLS,122430.40,0.055,-0.182,-0.019,0.191,286.72,-5.77,R*07
$PNVGBSS,1699,1699,0,,0.0*7F
$GPRMC,122430.60,A,5545.3092919,N,04844.4036670,E,1.05,294.67,200718,0.0,E,D*32
$GPGGA,122430.60,5545.3092919,N,04844.4036670,E,2,19,0.6,194.481,M,3.898,M,0.0,*70
$GPGSV,5,1,18,7,7,347,44,10,24,210,48,13,27,62,44,15,33,104,49*43
$GPGSV,5,2,18,16,39,264,47,20,51,202,48,21,87,130,46,26,26,233,49*70
$GPGSV,5,3,18,27,32,304,47,29,22,141,43,33,5,248,36,36,25,200,*40
$GPGSV,5,4,18,37,22,211,,38,5,248,,39,23,208,,40,26,172,*42
$GPGSV,5,5,18,41,19,140,,45,15,129,*77
$GLGSV,3,1,9,70,28,35,35,71,64,97,49,72,34,175,48,77,10,264,40*5C
$GLGSV,3,2,9,78,23,313,44,79,16,355,47,86,57,107,51,87,57,310,54*5B
$GLGSV,3,3,9,88,10,301,45*6E
$GPGSA,A,3,7,10,13,15,16,20,21,26,27,29,,,1.4,0.6,1.0*0C
$GLGSA,A,3,70,71,72,77,78,79,86,87,88,,,,1.4,0.6,1.0*28
$PNVGBLS,122430.60,0.054,-0.181,-0.010,0.189,286.61,-2.88,R*02
$PNVGBSS,1699,1699,0,,0.0*7F
$GPRMC,122430.80,A,5545.3092818,N,04844.4037762,E,1.10,294.67,200718,0.0,E,D*3B
$GPGGA,122430.80,5545.3092818,N,04844.4037762,E,2,19,0.6,194.475,M,3.898,M,0.0,*76
$GPGSV,5,1,18,7,7,347,44,10,24,210,48,13,27,62,44,15,33,104,49*43
$GPGSV,5,2,18,16,39,264,47,20,51,202,48,21,87,130,46,26,26,233,49*70
$GPGSV,5,3,18,27,32,304,47,29,22,141,43,33,5,248,36,36,25,200,*40
$GPGSV,5,4,18,37,22,211,,38,5,248,,39,23,208,,40,26,172,*42
$GPGSV,5,5,18,41,19,140,,45,15,129,*77
$GLGSV,3,1,9,70,28,35,35,71,64,97,49,72,34,175,48,77,10,264,40*5C
$GLGSV,3,2,9,78,23,313,44,79,16,355,47,86,57,107,51,87,57,310,54*5B
$GLGSV,3,3,9,88,10,301,45*6E
$GPGSA,A,3,7,10,13,15,16,20,21,26,27,29,,,1.4,0.6,1.0*0C
$GLGSA,A,3,70,71,72,77,78,79,86,87,88,,,,1.4,0.6,1.0*28
$PNVGBLS,122430.80,0.055,-0.183,-0.014,0.192,286.59,-4.07,R*0B
$PNVGBSS,1699,1699,0,,0.0*7F
$GPRMC,122431.00,A,5545.3092689,N,04844.4038945,E,1.19,294.67,200718,0.0,E,D*39
$GPGGA,122431.00,5545.3092689,N,04844.4038945,E,2,19,0.6,194.459,M,3.898,M,0.0,*73
$GPGSV,5,1,18,7,7,347,44,10,24,210,48,13,27,62,44,15,33,104,48*42
$GPGSV,5,2,18,16,39,264,46,20,51,202,49,21,87,130,47,26,26,233,49*71
$GPGSV,5,3,18,27,32,304,46,29,22,141,42,33,5,248,32,36,25,200,*44
$GPGSV,5,4,18,37,22,211,,38,5,248,,39,23,208,,40,26,172,*42
$GPGSV,5,5,18,41,19,140,,45,15,129,*77
$GLGSV,3,1,9,70,28,35,37,71,64,97,49,72,34,175,48,77,10,264,41*5F
$GLGSV,3,2,9,78,23,313,43,79,16,355,48,86,57,107,52,87,57,310,54*50
$GLGSV,3,3,9,88,10,301,45*6E
$GPGSA,A,3,7,10,13,15,16,20,21,26,27,29,,,1.4,0.6,1.0*0C
$GLGSA,A,3,70,71,72,77,78,79,86,87,88,,,,1.4,0.6,1.0*28
$PNVGBLS,122431.00,0.049,-0.185,-0.012,0.191,284.90,-3.49,R*06
$PNVGBSS,1699,1699,0,,0.0*7F
$GPRMC,122431.20,A,5545.3092535,N,04844.4040322,E,1.35,294.67,200718,0.0,E,D*35
$GPGGA,122431.20,5545.3092535,N,04844.4040322,E,2,19,0.6,194.447,M,3.898,M,0.0,*7E
$GPGSV,5,1,18,7,7,347,44,10,24,210,48,13,27,62,44,15,33,104,48*42
$GPGSV,5,2,18,16,39,264,46,20,51,202,49,21,87,130,47,26,26,233,49*71
$GPGSV,5,3,18,27,32,304,46,29,22,141,42,33,5,248,32,36,25,200,*44
$GPGSV,5,4,18,37,22,211,,38,5,248,,39,23,208,,40,26,172,*42
$GPGSV,5,5,18,41,19,140,,45,15,129,*77
$GLGSV,3,1,9,70,28,35,37,71,64,97,49,72,34,175,48,77,10,264,41*5F
$GLGSV,3,2,9,78,23,313,43,79,16,355,48,86,57,107,52,87,57,310,54*50
$GLGSV,3,3,9,88,10,301,45*6E
$GPGSA,A,3,7,10,13,15,16,20,21,26,27,29,,,1.4,0.6,1.0*0C
$GLGSA,A,3,70,71,72,77,78,79,86,87,88,,,,1.4,0.6,1.0*28
$PNVGBLS,122431.20,0.051,-0.182,-0.014,0.190,285.57,-4.17,R*0B
$PNVGBSS,1699,1699,0,,0.0*7F
$GPRMC,122431.40,A,5545.3092368,N,04844.4041689,E,1.40,100.58,200718,0.0,E,D*38
$GPGGA,122431.40,5545.3092368,N,04844.4041689,E,2,19,0.6,194.430,M,3.898,M,0.0,*73
$GPGSV,5,1,18,7,7,347,44,10,24,210,48,13,27,62,44,15,33,104,48*42
$GPGSV,5,2,18,16,39,264,46,20,51,202,49,21,87,130,47,26,26,233,49*71
$GPGSV,5,3,18,27,32,304,46,29,22,141,42,33,5,248,32,36,25,200,*44
$GPGSV,5,4,18,37,22,211,,38,5,248,,39,23,208,,40,26,172,*42
$GPGSV,5,5,18,41,19,140,,45,15,129,*77
$GLGSV,3,1,9,70,28,35,37,71,64,97,49,72,34,175,48,77,10,264,41*5F
$GLGSV,3,2,9,78,23,313,43,79,16,355,48,86,57,107,52,87,57,310,54*50
$GLGSV,3,3,9,88,10,301,45*6E
$GPGSA,A,3,7,10,13,15,16,20,21,26,27,29,,,1.4,0.6,1.0*0C
$GLGSA,A,3,70,71,72,77,78,79,86,87,88,,,,1.4,0.6,1.0*28
$PNVGBLS,122431.40,0.045,-0.186,-0.019,0.192,283.60,-5.78,R*09
$PNVGBSS,1699,1699,0,,0.0*7F
$GPRMC,122431.60,A,5545.3092240,N,04844.4043293,E,1.57,98.03,200718,0.0,E,D*04
$GPGGA,122431.60,5545.3092240,N,04844.4043293,E,2,19,0.6,194.419,M,3.898,M,0.0,*7C
$GPGSV,5,1,18,7,7,347,44,10,24,210,48,13,27,62,44,15,33,104,48*42
$GPGSV,5,2,18,16,39,264,46,20,51,202,49,21,87,130,47,26,26,233,49*71
$GPGSV,5,3,18,27,32,304,46,29,22,141,42,33,5,248,32,36,25,200,*44
$GPGSV,5,4,18,37,22,211,,38,5,248,,39,23,208,,40,26,172,*42
$GPGSV,5,5,18,41,19,140,,45,15,129,*77
$GLGSV,3,1,9,70,28,35,37,71,64,97,49,72,34,175,48,77,10,264,41*5F
$GLGSV,3,2,9,78,23,313,43,79,16,355,48,86,57,107,52,87,57,310,54*50
$GLGSV,3,3,9,88,10,301,45*6E
$GPGSA,A,3,7,10,13,15,16,20,21,26,27,29,,,1.4,0.6,1.0*0C
$GLGSA,A,3,70,71,72,77,78,79,86,87,88,,,,1.4,0.6,1.0*28
$PNVGBLS,122431.60,0.041,-0.183,-0.016,0.188,282.51,-4.91,R*0B
$PNVGBSS,1699,1699,0,,0.0*7F
$GPRMC,122431.80,A,5545.3092080,N,04844.4044979,E,1.68,98.37,200718,0.0,E,D*07
$GPGGA,122431.80,5545.3092080,N,04844.4044979,E,2,19,0.6,194.420,M,3.898,M,0.0,*7E
$GPGSV,5,1,18,7,7,347,44,10,24,210,48,13,27,62,44,15,33,104,48*42
$GPGSV,5,2,18,16,39,264,46,20,51,202,49,21,87,130,47,26,26,233,49*71
$GPGSV,5,3,18,27,32,304,46,29,22,141,42,33,5,248,32,36,25,200,*44
$GPGSV,5,4,18,37,22,211,,38,5,248,,39,23,208,,40,26,172,*42
$GPGSV,5,5,18,41,19,140,,45,15,129,*77
$GLGSV,3,1,9,70,28,35,37,71,64,97,49,72,34,175,48,77,10,264,41*5F
$GLGSV,3,2,9,78,23,313,43,79,16,355,48,86,57,107,52,87,57,310,54*50
$GLGSV,3,3,9,88,10,301,45*6E
$GPGSA,A,3,7,10,13,15,16,20,21,26,27,29,,,1.4,0.6,1.0*0C
$GLGSA,A,3,70,71,72,77,78,79,86,87,88,,,,1.4,0.6,1.0*28
$PNVGBLS,122431.80,0.038,-0.184,-0.014,0.188,281.77,-4.22,R*01
$PNVGBSS,1699,1699,0,,0.0*7F
$GPRMC,122432.00,A,5545.3091926,N,04844.4046728,E,1.76,98.05,200718,0.0,E,D*0C
$GPGGA,122432.00,5545.3091926,N,04844.4046728,E,2,19,0.6,194.424,M,3.898,M,0.0,*7F
$GPGSV,5,1,18,7,7,347,44,10,24,210,49,13,27,62,43,15,33,104,48*44
$GPGSV,5,2,18,16,39,264,44,20,51,202,49,21,87,130,46,26,26,233,49*72
$GPGSV,5,3,18,27,32,304,45,29,22,141,45,33,5,248,38,36,25,200,*4A
$GPGSV,5,4,18,37,22,211,,38,5,248,,39,23,208,,40,26,172,*42
$GPGSV,5,5,18,41,19,140,,45,15,129,*77
$GLGSV,3,1,9,70,28,35,37,71,64,97,48,72,34,175,48,77,10,264,42*5D
$GLGSV,3,2,9,78,23,313,46,79,16,355,47,86,57,107,52,87,57,310,54*5A
$GLGSV,3,3,9,88,10,301,44*6F
$GPGSA,A,3,7,10,13,15,16,20,21,26,27,29,,,1.4,0.6,1.0*0C
$GLGSA,A,3,70,71,72,77,78,79,86,87,88,,,,1.4,0.6,1.0*28
$PNVGBLS,122432.00,0.029,-0.186,-0.020,0.189,278.79,-6.14,R*01
$PNVGBSS,1699,1699,0,,0.0*7F
$GPRMC,122432.20,A,5545.3091822,N,04844.4048439,E,1.75,96.55,200718,0.0,E,D*0E
$GPGGA,122432.20,5545.3091822,N,04844.4048439,E,2,19,0.6,194.431,M,3.898,M,0.0,*71
$GPGSV,5,1,18,7,7,347,44,10,24,210,49,13,27,62,43,15,33,104,47*4B
$GPGSV,5,2,18,16,39,264,44,20,51,202,49,21,87,130,46,26,26,233,49*72
$GPGSV,5,3,18,27,32,304,45,29,22,141,45,33,5,248,38,36,25,200,*4A
$GPGSV,5,4,18,37,22,211,,38,5,248,,39,23,208,,40,26,172,*42
$GPGSV,5,5,18,41,19,140,,45,15,129,*77
$GLGSV,3,1,9,70,28,35,37,71,64,97,48,72,34,175,48,77,10,264,42*5D
$GLGSV,3,2,9,78,23,313,46,79,16,355,47,86,57,107,52,87,57,310,54*5A
$GLGSV,3,3,9,88,10,301,44*6F
$GPGSA,A,3,7,10,13,15,16,20,21,26,27,29,,,1.4,0.6,1.0*0C
$GLGSA,A,3,70,71,72,77,78,79,86,87,88,,,,1.4,0.6,1.0*28
$PNVGBLS,122432.20,0.028,-0.186,-0.019,0.189,278.44,-5.64,R*02
$PNVGBSS,1699,1699,0,,0.0*7F
$GPRMC,122432.40,A,5545.3091767,N,04844.4050390,E,1.90,93.78,200718,0.0,E,D*0A
$GPGGA,122432.40,5545.3091767,N,04844.4050390,E,2,19,0.6,194.437,M,3.897,M,0.0,*7D
$GPGSV,5,1,18,7,7,347,44,10,24,210,49,13,27,62,43,15,33,104,47*4B
$GPGSV,5,2,18,16,39,264,44,20,51,202,49,21,87,130,46,26,26,233,49*72
$GPGSV,5,3,18,27,32,304,45,29,22,141,45,33,5,248,38,36,25,200,*4A
$GPGSV,5,4,18,37,22,211,,38,5,248,,39,23,208,,40,26,172,*42
$GPGSV,5,5,18,41,19,140,,45,15,129,*77
$GLGSV,3,1,9,70,28,35,37,71,64,97,49,72,34,175,48,77,10,264,42*5C
$GLGSV,3,2,9,78,23,313,46,79,16,355,47,86,57,107,52,87,57,310,54*5A
$GLGSV,3,3,9,88,10,301,44*6F
$GPGSA,A,3,7,10,13,15,16,20,21,26,27,29,,,1.4,0.6,1.0*0C
$GLGSA,A,3,70,71,72,77,78,79,86,87,88,,,,1.4,0.6,1.0*28
$PNVGBLS,122432.40,0.022,-0.182,-0.020,0.185,276.96,-6.33,R*0C
$PNVGBSS,1699,1699,0,,0.0*7F
$GPRMC,122432.60,A,5545.3091731,N,04844.4052461,E,2.03,92.19,200718,0.0,E,D*0F
$GPGGA,122432.60,5545.3091731,N,04844.4052461,E,2,19,0.6,194.434,M,3.897,M,0.0,*74
$GPGSV,5,1,18,7,7,347,44,10,24,210,49,13,27,62,43,15,33,104,47*4B
$GPGSV,5,2,18,16,39,264,44,20,51,202,49,21,87,130,46,26,26,233,49*72
$GPGSV,5,3,18,27,32,304,45,29,22,141,45,33,5,248,38,36,25,200,*4A
$GPGSV,5,4,18,37,22,211,,38,5,248,,39,23,208,,40,26,172,*42
$GPGSV,5,5,18,41,19,140,,45,15,129,*77
$GLGSV,3,1,9,70,28,35,37,71,64,97,49,72,34,175,48,77,10,264,42*5C
$GLGSV,3,2,9,78,23,313,46,79,16,355,47,86,57,107,52,87,57,310,54*5A
$GLGSV,3,3,9,88,10,301,44*6F
$GPGSA,A,3,7,10,13,15,16,20,21,26,27,29,,,1.4,0.6,1.0*0C
$GLGSA,A,3,70,71,72,77,78,79,86,87,88,,,,1.4,0.6,1.0*28
$PNVGBLS,122432.60,0.016,-0.183,-0.015,0.185,274.91,-4.60,R*0F
$PNVGBSS,1699,1699,0,,0.0*7F
$GPRMC,122432.80,A,5545.3091720,N,04844.4054535,E,2.08,90.87,200718,0.0,E,D*09
$GPGGA,122432.80,5545.3091720,N,04844.4054535,E,2,19,0.6,194.442,M,3.897,M,0.0,*7D
$GPGSV,5,1,18,7,7,347,44,10,24,210,49,13,27,62,43,15,33,104,47*4B
$GPGSV,5,2,18,16,39,264,44,20,51,202,49,21,87,130,46,26,26,233,49*72
$GPGSV,5,3,18,27,32,304,45,29,22,141,45,33,5,248,38,36,25,200,*4A
$GPGSV,5,4,18,37,22,211,,38,5,248,,39,23,208,,40,26,172,*42
$GPGSV,5,5,18,41,19,140,,45,15,129,*77
$GLGSV,3,1,9,70,28,35,37,71,64,97,49,72,34,175,48,77,10,264,42*5C
$GLGSV,3,2,9,78,23,313,46,79,16,355,47,86,57,107,52,87,57,310,54*5A
$GLGSV,3,3,9,88,10,301,44*6F
$GPGSA,A,3,7,10,13,15,16,20,21,26,27,29,,,1.4,0.6,1.0*0C
$GLGSA,A,3,70,71,72,77,78,79,86,87,88,,,,1.4,0.6,1.0*28
$PNVGBLS,122432.80,0.011,-0.182,-0.019,0.183,273.59,-5.88,R*09
$PNVGBSS,1699,1699,0,,0.0*7F
$GPRMC,122433.00,A,5545.3091766,N,04844.4056650,E,2.12,88.61,200718,0.0,E,D*0A
$GPGGA,122433.00,5545.3091766,N,04844.4056650,E,2,19,0.6,194.426,M,3.897,M,0.0,*76
$GPGSV,5,1,18,7,7,347,43,10,24,210,50,13,27,62,41,15,33,104,45*44
$GPGSV,5,2,18,16,39,264,44,20,51,202,50,21,87,130,47,26,26,233,48*7A
$GPGSV,5,3,18,27,32,304,42,29,22,141,44,33,5,248,38,36,25,200,*4C
$GPGSV,5,4,18,37,22,211,,38,5,248,,39,23,208,,40,26,172,*42
$GPGSV,5,5,18,41,19,140,,45,15,129,*77
$GLGSV,3,1,9,70,28,35,35,71,64,97,48,72,34,175,49,77,10,264,45*59
$GLGSV,3,2,9,78,23,313,48,79,16,355,45,86,57,107,53,87,57,310,54*57
$GLGSV,3,3,9,88,10,301,37*6B
$GPGSA,A,3,7,10,13,15,16,20,21,26,27,29,,,1.4,0.6,1.0*0C
$GLGSA,A,3,70,71,72,77,78,79,86,87,88,,,,1.4,0.6,1.0*28
$PNVGBLS,122433.00,0.010,-0.185,-0.017,0.186,273.02,-5.24,R*05
$PNVGBSS,1699,1699,0,,0.0*7F
$GPRMC,122433.20,A,5545.3091819,N,04844.4058834,E,2.18,87.54,200718,0.0,E,D*0E
$GPGGA,122433.20,5545.3091819,N,04844.4058834,E,2,19,0.6,194.426,M,3.897,M,0.0,*71
$GPGSV,5,1,18,7,7,347,43,10,24,210,50,13,27,62,41,15,33,104,45*44
$GPGSV,5,2,18,16,39,264,44,20,51,202,50,21,87,130,47,26,26,233,48*7A
$GPGSV,5,3,18,27,32,304,42,29,22,141,44,33,5,248,38,36,25,200,*4C
$GPGSV,5,4,18,37,22,211,,38,5,248,,39,23,208,,40,26,172,*42
$GPGSV,5,5,18,41,19,140,,45,15,129,*77
$GLGSV,3,1,9,70,28,35,35,71,64,97,48,72,34,175,49,77,10,264,45*59
$GLGSV,3,2,9,78,23,313,48,79,16,355,45,86,57,107,53,87,57,310,54*57
$GLGSV,3,3,9,88,10,301,36*6A
$GPGSA,A,3,7,10,13,15,16,20,21,26,27,29,,,1.4,0.6,1.0*0C
$GLGSA,A,3,70,71,72,77,78,79,86,87,88,,,,1.4,0.6,1.0*28
$PNVGBLS,122433.20,0.006,-0.183,-0.023,0.185,271.74,-7.13,R*07
$PNVGBSS,1699,1699,0,,0.0*7F
$GPRMC,122433.40,A,5545.3091936,N,04844.4061007,E,2.20,85.24,200718,0.0,E,D*08
$GPGGA,122433.40,5545.3091936,N,04844.4061007,E,2,19,0.6,194.421,M,3.897,M,0.0,*7E
$GPGSV,5,1,18,7,7,347,43,10,24,210,49,13,27,62,41,15,33,104,45*4C
$GPGSV,5,2,18,16,39,264,44,20,51,202,50,21,87,130,46,26,26,233,48*7B
$GPGSV,5,3,18,27,32,304,42,29,22,141,43,33,5,248,38,36,25,200,*4B
$GPGSV,5,4,18,37,22,211,,38,5,248,,39,23,208,,40,26,172,*42
$GPGSV,5,5,18,41,19,140,,45,15,129,*77
$GLGSV,3,1,9,70,28,35,35,71,64,97,48,72,34,175,49,77,10,264,45*59
$GLGSV,3,2,9,78,23,313,48,79,16,355,45,86,57,107,53,87,57,310,54*57
$GLGSV,3,3,9,88,10,301,36*6A
$GPGSA,A,3,7,10,13,15,16,20,21,26,27,29,,,1.4,0.6,1.0*0C
$GLGSA,A,3,70,71,72,77,78,79,86,87,88,,,,1.4,0.6,1.0*28
$PNVGBLS,122433.40,-0.004,-0.185,-0.026,0.186,268.85,-8.03,R*26
$PNVGBSS,1699,1699,0,,0.0*7F
$GPRMC,122433.60,A,5545.3092087,N,04844.4063269,E,2.27,83.59,200718,0.0,E,D*09
$GPGGA,122433.60,5545.3092087,N,04844.4063269,E,2,19,0.6,194.419,M,3.897,M,0.0,*7F
$GPGSV,5,1,18,7,7,347,43,10,24,210,49,13,27,62,41,15,33,104,45*4C
$GPGSV,5,2,18,16,39,264,44,20,51,202,50,21,87,130,46,26,26,233,48*7B
$GPGSV,5,3,18,27,32,304,42,29,22,141,43,33,5,248,38,36,25,200,*4B
$GPGSV,5,4,18,37,22,211,,38,5,248,,39,23,208,,40,26,172,*42
$GPGSV,5,5,18,41,19,140,,45,15,129,*77
$GLGSV,3,1,9,70,28,35,35,71,64,97,48,72,34,175,49,77,10,264,45*59
$GLGSV,3,2,9,78,23,313,48,79,16,355,45,86,57,107,53,87,57,310,54*57
$GLGSV,3,3,9,88,10,301,36*6A
$GPGSA,A,3,7,10,13,15,16,20,21,26,27,29,,,1.4,0.6,1.0*0C
$GLGSA,A,3,70,71,72,77,78,79,86,87,88,,,,1.4,0.6,1.0*28
$PNVGBLS,122433.60,-0.009,-0.183,-0.021,0.185,267.29,-6.64,R*2D
$PNVGBSS,1699,1699,0,,0.0*7F
$GPRMC,122433.80,A,5545.3092261,N,04844.4065589,E,2.33,82.54,200718,0.0,E,D*0B
$GPGGA,122433.80,5545.3092261,N,04844.4065589,E,2,19,0.6,194.408,M,3.897,M,0.0,*74
$GPGSV,5,1,18,7,7,347,43,10,24,210,49,13,27,62,41,15,33,104,45*4C
$GPGSV,5,2,18,16,39,264,44,20,51,202,50,21,87,130,46,26,26,233,48*7B
$GPGSV,5,3,18,27,32,304,42,29,22,141,43,33,5,248,38,36,25,200,*4B
$GPGSV,5,4,18,37,22,211,,38,5,248,,39,23,208,,40,26,172,*42
$GPGSV,5,5,18,41,19,140,,45,15,129,*77
$GLGSV,3,1,9,70,28,35,35,71,64,97,48,72,34,175,49,77,10,264,45*59
$GLGSV,3,2,9,78,23,313,48,79,16,355,45,86,57,107,53,87,57,310,54*57
$GLGSV,3,3,9,88,10,301,36*6A
$GPGSA,A,3,7,10,13,15,16,20,21,26,27,29,,,1.4,0.6,1.0*0C
$GLGSA,A,3,70,71,72,77,78,79,86,87,88,,,,1.4,0.6,1.0*28
$PNVGBLS,122433.80,-0.014,-0.182,-0.023,0.184,265.52,-7.06,R*26
$PNVGBSS,1699,1699,0,,0.0*7F
$GPRMC,122434.00,A,5545.3092482,N,04844.4067842,E,2.32,80.65,200718,0.0,E,D*06
$GPGGA,122434.00,5545.3092482,N,04844.4067842,E,2,19,0.6,194.398,M,3.897,M,0.0,*76
$GPGSV,5,1,18,7,7,347,42,10,24,210,50,13,27,62,42,15,33,104,41*42
$GPGSV,5,2,18,16,39,264,46,20,51,202,50,21,87,130,47,26,26,233,47*77
$GPGSV,5,3,18,27,32,304,46,29,22,141,46,33,5,248,39,36,25,200,*4B
$GPGSV,5,4,18,37,22,211,,38,5,248,,39,23,208,,40,26,172,*42
$GPGSV,5,5,18,41,19,140,,45,15,129,*77
$GLGSV,3,1,9,70,28,35,36,71,64,97,49,72,34,175,50,77,10,264,45*53
$GLGSV,3,2,9,78,23,313,52,79,16,355,43,86,57,107,53,87,57,310,54*5A
$GLGSV,3,3,9,88,10,301,38*64
$GPGSA,A,3,7,10,13,15,16,20,21,26,27,29,,,1.4,0.6,1.0*0C
$GLGSA,A,3,70,71,72,77,78,79,86,87,88,,,,1.4,0.6,1.0*28
$PNVGBLS,122434.00,-0.021,-0.183,-0.021,0.185,263.53,-6.45,R*2C
$PNVGBSS,1699,1699,0,,0.0*7F
$GPRMC,122434.20,A,5545.3092779,N,04844.4070135,E,2.36,78.37,200718,0.0,E,D*08
$GPGGA,122434.20,5545.3092779,N,04844.4070135,E,2,19,0.6,194.403,M,3.897,M,0.0,*79
$GPGSV,5,1,18,7,7,347,42,10,24,210,50,13,27,62,42,15,33,104,41*42
$GPGSV,5,2,18,16,39,264,46,20,51,202,50,21,87,130,47,26,26,233,47*77
$GPGSV,5,3,18,27,32,304,46,29,22,141,46,33,5,248,39,36,25,200,*4B
$GPGSV,5,4,18,37,22,211,,38,5,248,,39,23,208,,40,26,172,*42
$GPGSV,5,5,18,41,19,140,,45,15,129,*77
$GLGSV,3,1,9,70,28,35,36,71,64,97,49,72,34,175,50,77,10,264,45*53
$GLGSV,3,2,9,78,23,313,52,79,16,355,43,86,57,107,53,87,57,310,54*5A
$GLGSV,3,3,9,88,10,301,39*65
$GPGSA,A,3,7,10,13,15,16,20,21,26,27,29,,,1.4,0.6,1.0*0C
$GLGSA,A,3,70,71,72,77,78,79,86,87,88,,,,1.4,0.6,1.0*28
$PNVGBLS,122434.20,-0.024,-0.179,-0.024,0.182,262.29,-7.57,R*22
$PNVGBSS,1700,1700,0,,0.0*7F
$GPRMC,122434.40,A,5545.3093083,N,04844.4072404,E,2.36,77.34,200718,0.0,E,D*04
$GPGGA,122434.40,5545.3093083,N,04844.4072404,E,2,19,0.6,194.413,M,3.897,M,0.0,*78
$GPGSV,5,1,18,7,7,347,42,10,24,210,50,13,27,62,42,15,33,104,41*42
$GPGSV,5,2,18,16,39,264,46,20,51,202,50,21,87,130,47,26,26,233,47*77
$GPGSV,5,3,18,27,32,304,46,29,22,141,46,33,5,248,39,36,25,200,*4B
$GPGSV,5,4,18,37,22,211,,38,5,248,,39,23,208,,40,26,172,*42
$GPGSV,5,5,18,41,19,140,,45,15,129,*77
$GLGSV,3,1,9,70,28,35,36,71,64,97,49,72,34,175,50,77,10,264,45*53
$GLGSV,3,2,9,78,23,313,52,79,16,355,43,86,57,107,53,87,57,310,54*5A
$GLGSV,3,3,9,88,10,301,39*65
$GPGSA,A,3,7,10,13,15,16,20,21,26,27,29,,,1.4,0.6,1.0*0C
$GLGSA,A,3,70,71,72,77,78,79,86,87,88,,,,1.4,0.6,1.0*28
$PNVGBLS,122434.40,-0.027,-0.179,-0.035,0.184,261.28,-10.91,R*1F
$PNVGBSS,1700,1700,0,,0.0*7F
$GPRMC,122434.60,A,5545.3093412,N,04844.4074702,E,2.38,76.40,200718,0.0,E,D*05
$GPGGA,122434.60,5545.3093412,N,04844.4074702,E,2,19,0.6,194.418,M,3.897,M,0.0,*7E
$GPGSV,5,1,18,7,7,347,42,10,24,210,50,13,27,62,42,15,33,104,41*42
$GPGSV,5,2,18,16,39,264,46,20,51,202,50,21,87,130,47,26,26,233,47*77
$GPGSV,5,3,18,27,32,304,46,29,22,141,46,33,5,248,39,36,25,200,*4B
$GPGSV,5,4,18,37,22,211,,38,5,248,,39,23,208,,40,26,172,*42
$GPGSV,5,5,18,41,19,140,,45,15,129,*77
$GLGSV,3,1,9,70,28,35,36,71,64,97,49,72,34,175,50,77,10,264,45*53
$GLGSV,3,2,9,78,23,313,52,79,16,355,43,86,57,107,53,87,57,310,54*5A
$GLGSV,3,3,9,88,10,301,39*65
$GPGSA,A,3,7,10,13,15,16,20,21,26,27,29,,,1.4,0.6,1.0*0C
$GLGSA,A,3,70,71,72,77,78,79,86,87,88,,,,1.4,0.6,1.0*28
$PNVGBLS,122434.60,-0.034,-0.174,-0.039,0.181,258.88,-12.53,R*17
$PNVGBSS,1700,1700,0,,0.0*7F
$GPRMC,122434.80,A,5545.3093745,N,04844.4076848,E,2.29,75.38,200718,0.0,E,D*05
$GPGGA,122434.80,5545.3093745,N,04844.4076848,E,2,19,0.6,194.410,M,3.897,M,0.0,*7A
$GPGSV,5,1,18,7,7,347,42,10,24,210,50,13,27,62,42,15,33,104,41*42
$GPGSV,5,2,18,16,39,264,46,20,51,202,50,21,87,130,47,26,26,233,47*77
$GPGSV,5,3,18,27,32,304,46,29,22,141,46,33,5,248,39,36,25,200,*4B
$GPGSV,5,4,18,37,22,211,,38,5,248,,39,23,208,,40,26,172,*42
$GPGSV,5,5,18,41,19,140,,45,15,129,*77
$GLGSV,3,1,9,70,28,35,36,71,64,97,49,72,34,175,50,77,10,264,45*53
$GLGSV,3,2,9,78,23,313,52,79,16,355,43,86,57,107,53,87,57,310,54*5A
$GLGSV,3,3,9,88,10,301,39*65
$GPGSA,A,3,7,10,13,15,16,20,21,26,27,29,,,1.4,0.6,1.0*0C
$GLGSA,A,3,70,71,72,77,78,79,86,87,88,,,,1.4,0.6,1.0*28
$PNVGBLS,122434.80,-0.044,-0.174,-0.033,0.182,255.87,-10.47,R*12
$PNVGBSS,1700,1700,0,,0.0*7F
$GPRMC,122435.00,A,5545.3094111,N,04844.4078958,E,2.25,73.87,200718,0.0,E,D*0C
$GPGGA,122435.00,5545.3094111,N,04844.4078958,E,2,19,0.6,194.433,M,3.897,M,0.0,*7C
$GPGSV,5,1,18,7,7,347,41,10,24,210,49,13,27,62,44,15,33,104,43*4D
$GPGSV,5,2,18,16,39,264,49,20,51,202,50,21,87,130,46,26,26,233,47*79
$GPGSV,5,3,18,27,32,304,48,29,22,141,45,33,5,248,41,36,25,200,*49
$GPGSV,5,4,18,37,22,211,,38,5,248,,39,23,208,,40,26,172,*42
$GPGSV,5,5,18,41,19,140,,45,15,129,*77
$GLGSV,3,1,9,70,28,35,35,71,64,97,49,72,34,175,51,77,10,264,45*51
$GLGSV,3,2,9,78,23,313,52,79,16,355,43,86,57,107,53,87,57,310,54*5A
$GLGSV,3,3,9,88,10,301,44*6F
$GPGSA,A,3,7,10,13,15,16,20,21,26,27,29,,,1.4,0.6,1.0*0C
$GLGSA,A,3,70,71,72,77,78,79,86,87,88,,,,1.4,0.6,1.0*28
$PNVGBLS,122435.00,-0.046,-0.175,-0.034,0.184,255.14,-10.79,R*1E
